[{"requestType":17,"buses":[{"latitude":37.23065,"pattern":"Main Street - South","busId":"1916","route":"MSS","longitude":-80.41735,"isTripper":false,"direction":52,"lastStopCode":"1110","passengers":0,"timestamp":1505092540000,"lastStopName":"Squires Ebnd"},{"latitude":37.23027,"pattern":"Toms Creek Progress","busId":"6015","route":"TOM","longitude":-80.42098,"isTripper":false,"direction":4,"lastStopCode":"1114","passengers":16,"timestamp":1505092547000,"lastStopName":"Torgersen Hall"},{"latitude":37.22772,"pattern":"University City Blvd via Alumni Mall","busId":"1912","route":"UCB","longitude":-80.42392,"isTripper":false,"direction":226,"lastStopCode":"1101","passengers":6,"timestamp":1505092533000,"lastStopName":"Burruss Hall"},{"latitude":37.2272,"pattern":"Hethwood Squires West to Burruss","busId":"6403","route":"HWD","longitude":-80.42443,"isTripper":false,"direction":208,"lastStopCode":"1101","passengers":22,"timestamp":1505092543000,"lastStopName":"Burruss Hall"},{"latitude":37.2292,"pattern":"Hokie Express via Downtown","busId":"2701","route":"HXP","longitude":-80.4201,"isTripper":false,"direction":238,"lastStopCode":"1113","passengers":0,"timestamp":1505092544000,"lastStopName":"Squires Wbnd"},{"latitude":37.19702,"pattern":"Two Town Trolley No Hospital","busId":"6204","route":"TTT","longitude":-80.39662,"isTripper":false,"direction":188,"lastStopCode":"1110","passengers":40,"timestamp":1505082063000,"lastStopName":"Squires Ebnd"}]}][{"requestType":17,"buses":[{"latitude":37.23065,"pattern":"Main Street - South","busId":"1916","route":"MSS","longitude":-80.41735,"isTripper":false,"direction":52,"lastStopCode":"1110","passengers":0,"timestamp":1505092540000,"lastStopName":"Squires Ebnd"},{"latitude":37.23027,"pattern":"Toms Creek Progress","busId":"6015","route":"TOM","longitude":-80.42098,"isTripper":false,"direction":4,"lastStopCode":"1114","passengers":16,"timestamp":1505092547000,"lastStopName":"Torgersen Hall"},{"latitude":37.22772,"pattern":"University City Blvd via Alumni Mall","busId":"1912","route":"UCB","longitude":-80.42392,"isTripper":false,"direction":226,"lastStopCode":"1101","passengers":6,"timestamp":1505092533000,"lastStopName":"Burruss Hall"},{"latitude":37.2272,"pattern":"Hethwood Squires West to Burruss","busId":"6403","route":"HWD","longitude":-80.42443,"isTripper":false,"direction":208,"lastStopCode":"1101","passengers":22,"timestamp":1505092543000,"lastStopName":"Burruss Hall"},{"latitude":37.2292,"pattern":"Hokie Express via Downtown","busId":"2701","route":"HXP","longitude":-80.4201,"isTripper":false,"direction":238,"lastStopCode":"1113","passengers":0,"timestamp":1505092544000,"lastStopName":"Squires Wbnd"},{"latitude":37.19702,"pattern":"Two Town Trolley No Hospital","busId":"6204","route":"TTT","longitude":-80.39662,"isTripper":false,"direction":188,"lastStopCode":"1110","passengers":40,"timestamp":1505082063000,"lastStopName":"Squires Ebnd"}]}][{"requestType":17,"buses":[{"latitude":37.23065,"pattern":"Main Street - South","busId":"1916","route":"MSS","longitude":-80.41735,"isTripper":false,"direction":52,"lastStopCode":"1110","passengers":0,"timestamp":1505092540000,"lastStopName":"Squires Ebnd"},{"latitude":37.23027,"pattern":"Toms Creek Progress","busId":"6015","route":"TOM","longitude":-80.42098,"isTripper":false,"direction":4,"lastStopCode":"1114","passengers":16,"timestamp":1505092547000,"lastStopName":"Torgersen Hall"},{"latitude":37.22772,"pattern":"University City Blvd via Alumni Mall","busId":"1912","route":"UCB","longitude":-80.42392,"isTripper":false,"direction":226,"lastStopCode":"1101","passengers":6,"timestamp":1505092533000,"lastStopName":"Burruss Hall"},{"latitude":37.2272,"pattern":"Hethwood Squires West to Burruss","busId":"6403","route":"HWD","longitude":-80.42443,"isTripper":false,"direction":208,"lastStopCode":"1101","passengers":22,"timestamp":1505092543000,"lastStopName":"Burruss Hall"},{"latitude":37.2292,"pattern":"Hokie Express via Downtown","busId":"2701","route":"HXP","longitude":-80.4201,"isTripper":false,"direction":238,"lastStopCode":"1113","passengers":0,"timestamp":1505092544000,"lastStopName":"Squires Wbnd"},{"latitude":37.19702,"pattern":"Two Town Trolley No Hospital","busId":"6204","route":"TTT","longitude":-80.39662,"isTripper":false,"direction":188,"lastStopCode":"1110","passengers":40,"timestamp":1505082063000,"lastStopName":"Squires Ebnd"}]}][{"requestType":17,"buses":[{"latitude":37.23132,"pattern":"Main Street - South","busId":"1916","route":"MSS","longitude":-80.41617,"isTripper":false,"direction":54,"lastStopCode":"1111","passengers":0,"timestamp":1505092600000,"lastStopName":"Alumni Mall Ebnd"},{"latitude":37.23152,"pattern":"Toms Creek Progress","busId":"6015","route":"TOM","longitude":-80.42205,"isTripper":false,"direction":318,"lastStopCode":"1104","passengers":16,"timestamp":1505092588000,"lastStopName":"Old Security Bldg"},{"latitude":37.22685,"pattern":"University City Blvd via Alumni Mall","busId":"1912","route":"UCB","longitude":-80.42577,"isTripper":false,"direction":334,"lastStopCode":"1102","passengers":7,"timestamp":1505092601000,"lastStopName":"Davidson Hall"},{"latitude":37.22747,"pattern":"Hethwood Squires West to Burruss","busId":"6403","route":"HWD","longitude":-80.42625,"isTripper":false,"direction":324,"lastStopCode":"1102","passengers":22,"timestamp":1505092598000,"lastStopName":"Davidson Hall"},{"latitude":37.2296,"pattern":"Hokie Express via Downtown","busId":"2701","route":"HXP","longitude":-80.42125,"isTripper":false,"direction":204,"lastStopCode":"1113","passengers":0,"timestamp":1505092584000,"lastStopName":"Squires Wbnd"},{"latitude":37.19702,"pattern":"Two Town Trolley No Hospital","busId":"6204","route":"TTT","longitude":-80.39662,"isTripper":false,"direction":188,"lastStopCode":"1110","passengers":40,"timestamp":1505082063000,"lastStopName":"Squires Ebnd"}]}][{"requestType":17,"buses":[{"latitude":37.23132,"pattern":"Main Street - South","busId":"1916","route":"MSS","longitude":-80.41617,"isTripper":false,"direction":54,"lastStopCode":"1111","passengers":0,"timestamp":1505092600000,"lastStopName":"Alumni Mall Ebnd"},{"latitude":37.23152,"pattern":"Toms Creek Progress","busId":"6015","route":"TOM","longitude":-80.42205,"isTripper":false,"direction":318,"lastStopCode":"1104","passengers":16,"timestamp":1505092588000,"lastStopName":"Old Security Bldg"},{"latitude":37.22685,"pattern":"University City Blvd via Alumni Mall","busId":"1912","route":"UCB","longitude":-80.42577,"isTripper":false,"direction":334,"lastStopCode":"1102","passengers":7,"timestamp":1505092601000,"lastStopName":"Davidson Hall"},{"latitude":37.22747,"pattern":"Hethwood Squires West to Burruss","busId":"6403","route":"HWD","longitude":-80.42625,"isTripper":false,"direction":324,"lastStopCode":"1102","passengers":22,"timestamp":1505092598000,"lastStopName":"Davidson Hall"},{"latitude":37.2296,"pattern":"Hokie Express via Downtown","busId":"2701","route":"HXP","longitude":-80.42125,"isTripper":false,"direction":204,"lastStopCode":"1113","passengers":0,"timestamp":1505092584000,"lastStopName":"Squires Wbnd"},{"latitude":37.19702,"pattern":"Two Town Trolley No Hospital","busId":"6204","route":"TTT","longitude":-80.39662,"isTripper":false,"direction":188,"lastStopCode":"1110","passengers":40,"timestamp":1505082063000,"lastStopName":"Squires Ebnd"}]}][{"requestType":17,"buses":[{"latitude":37.23075,"pattern":"Main Street - South","busId":"1916","route":"MSS","longitude":-80.41552,"isTripper":false,"direction":142,"lastStopCode":"1111","passengers":0,"timestamp":1505092671000,"lastStopName":"Alumni Mall Ebnd"},{"latitude":37.23255,"pattern":"Toms Creek Progress","busId":"6015","route":"TOM","longitude":-80.42408,"isTripper":false,"direction":298,"lastStopCode":"1105","passengers":18,"timestamp":1505092671000,"lastStopName":"Stanger\/Perry Nbnd"},{"latitude":37.23007,"pattern":"University City Blvd via Alumni Mall","busId":"1912","route":"UCB","longitude":-80.4283,"isTripper":false,"direction":330,"lastStopCode":"1103","passengers":7,"timestamp":1505092650000,"lastStopName":"West Campus\/Perry Nbnd"},{"latitude":37.2303,"pattern":"Hethwood Squires West to Burruss","busId":"6403","route":"HWD","longitude":-80.42848,"isTripper":false,"direction":332,"lastStopCode":"1103","passengers":23,"timestamp":1505092655000,"lastStopName":"West Campus\/Perry Nbnd"},{"latitude":37.22717,"pattern":"Hokie Express via Downtown","busId":"2701","route":"HXP","longitude":-80.42447,"isTripper":false,"direction":202,"lastStopCode":"1101","passengers":2,"timestamp":1505092666000,"lastStopName":"Burruss Hall"},{"latitude":37.19702,"pattern":"Two Town Trolley No Hospital","busId":"6204","route":"TTT","longitude":-80.39662,"isTripper":false,"direction":188,"lastStopCode":"1110","passengers":40,"timestamp":1505082063000,"lastStopName":"Squires Ebnd"}]}][{"requestType":17,"buses":[{"latitude":37.22625,"pattern":"Main Street - South","busId":"1916","route":"MSS","longitude":-80.41067,"isTripper":false,"direction":138,"lastStopCode":"1601","passengers":0,"timestamp":1505092733000,"lastStopName":"Blacksburg Municipal Building"},{"latitude":37.23308,"pattern":"Toms Creek Progress","busId":"6015","route":"TOM","longitude":-80.42485,"isTripper":false,"direction":334,"lastStopCode":"1105","passengers":20,"timestamp":1505092730000,"lastStopName":"Stanger\/Perry Nbnd"},{"latitude":37.23172,"pattern":"University City Blvd via Alumni Mall","busId":"1912","route":"UCB","longitude":-80.4326,"isTripper":false,"direction":278,"lastStopCode":"1103","passengers":7,"timestamp":1505092714000,"lastStopName":"West Campus\/Perry Nbnd"},{"latitude":37.23167,"pattern":"Hethwood Squires West to Burruss","busId":"6403","route":"HWD","longitude":-80.4325,"isTripper":false,"direction":276,"lastStopCode":"1103","passengers":23,"timestamp":1505092714000,"lastStopName":"West Campus\/Perry Nbnd"},{"latitude":37.2225,"pattern":"Hokie Express via Downtown","busId":"2701","route":"HXP","longitude":-80.4236,"isTripper":false,"direction":158,"lastStopCode":"1116","passengers":2,"timestamp":1505092738000,"lastStopName":"Litton Reaves Hall"},{"latitude":37.19702,"pattern":"Two Town Trolley No Hospital","busId":"6204","route":"TTT","longitude":-80.39662,"isTripper":false,"direction":188,"lastStopCode":"1110","passengers":40,"timestamp":1505082063000,"lastStopName":"Squires Ebnd"}]}][{"requestType":17,"buses":[{"latitude":37.22042,"pattern":"Main Street - South","busId":"1916","route":"MSS","longitude":-80.40427,"isTripper":false,"direction":136,"lastStopCode":"1605","passengers":0,"timestamp":1505092794000,"lastStopName":"Main\/Airport Sbnd"},{"latitude":37.23482,"pattern":"Toms Creek Progress","busId":"6015","route":"TOM","longitude":-80.42582,"isTripper":false,"direction":334,"lastStopCode":"1300","passengers":20,"timestamp":1505092796000,"lastStopName":"Toms Creek\/Winston Nbnd"},{"latitude":37.23552,"pattern":"University City Blvd via Alumni Mall","busId":"1912","route":"UCB","longitude":-80.43382,"isTripper":false,"direction":332,"lastStopCode":"1316","passengers":6,"timestamp":1505092793000,"lastStopName":"University Mall Nbnd"},{"latitude":37.22697,"pattern":"Hethwood Squires West to Burruss","busId":"6403","route":"HWD","longitude":-80.44053,"isTripper":false,"direction":224,"lastStopCode":"1201","passengers":23,"timestamp":1505092800000,"lastStopName":"Vet School Wbnd"},{"latitude":37.22157,"pattern":"Hokie Express via Downtown","busId":"2701","route":"HXP","longitude":-80.4217,"isTripper":false,"direction":48,"lastStopCode":"1123","passengers":3,"timestamp":1505092798000,"lastStopName":"McComas Hall"},{"latitude":37.19702,"pattern":"Two Town Trolley No Hospital","busId":"6204","route":"TTT","longitude":-80.39662,"isTripper":false,"direction":188,"lastStopCode":"1110","passengers":40,"timestamp":1505082063000,"lastStopName":"Squires Ebnd"}]}][{"requestType":17,"buses":[{"latitude":37.22042,"pattern":"Main Street - South","busId":"1916","route":"MSS","longitude":-80.40427,"isTripper":false,"direction":136,"lastStopCode":"1605","passengers":0,"timestamp":1505092794000,"lastStopName":"Main\/Airport Sbnd"},{"latitude":37.23482,"pattern":"Toms Creek Progress","busId":"6015","route":"TOM","longitude":-80.42582,"isTripper":false,"direction":334,"lastStopCode":"1300","passengers":20,"timestamp":1505092796000,"lastStopName":"Toms Creek\/Winston Nbnd"},{"latitude":37.23552,"pattern":"University City Blvd via Alumni Mall","busId":"1912","route":"UCB","longitude":-80.43382,"isTripper":false,"direction":332,"lastStopCode":"1316","passengers":6,"timestamp":1505092793000,"lastStopName":"University Mall Nbnd"},{"latitude":37.22697,"pattern":"Hethwood Squires West to Burruss","busId":"6403","route":"HWD","longitude":-80.44053,"isTripper":false,"direction":224,"lastStopCode":"1201","passengers":23,"timestamp":1505092800000,"lastStopName":"Vet School Wbnd"},{"latitude":37.22157,"pattern":"Hokie Express via Downtown","busId":"2701","route":"HXP","longitude":-80.4217,"isTripper":false,"direction":48,"lastStopCode":"1123","passengers":3,"timestamp":1505092798000,"lastStopName":"McComas Hall"},{"latitude":37.19702,"pattern":"Two Town Trolley No Hospital","busId":"6204","route":"TTT","longitude":-80.39662,"isTripper":false,"direction":188,"lastStopCode":"1110","passengers":40,"timestamp":1505082063000,"lastStopName":"Squires Ebnd"}]}][{"requestType":17,"buses":[{"latitude":37.21262,"pattern":"Main Street - South","busId":"1916","route":"MSS","longitude":-80.40005,"isTripper":false,"direction":166,"lastStopCode":"1608","passengers":0,"timestamp":1505092859000,"lastStopName":"Main\/Landsdowne Sbnd"},{"latitude":37.23867,"pattern":"Toms Creek Progress","busId":"6015","route":"TOM","longitude":-80.42672,"isTripper":false,"direction":340,"lastStopCode":"1302","passengers":18,"timestamp":1505092858000,"lastStopName":"Toms Creek\/Watson Nbnd"},{"latitude":37.23632,"pattern":"University City Blvd via Alumni Mall","busId":"1912","route":"UCB","longitude":-80.43432,"isTripper":false,"direction":340,"lastStopCode":"1317","passengers":6,"timestamp":1505092833000,"lastStopName":"University City\/Glade Nbnd"},{"latitude":37.22453,"pattern":"Hethwood Squires West to Burruss","busId":"6403","route":"HWD","longitude":-80.44747,"isTripper":false,"direction":236,"lastStopCode":"1203","passengers":23,"timestamp":1505092852000,"lastStopName":"Prices Fork\/Huntington Wbnd"},{"latitude":37.21933,"pattern":"Hokie Express via Downtown","busId":"2701","route":"HXP","longitude":-80.41947,"isTripper":false,"direction":158,"lastStopCode":"1129","passengers":3,"timestamp":1505092859000,"lastStopName":"Coliseum Parking Lot Sbnd"},{"latitude":37.19702,"pattern":"Two Town Trolley No Hospital","busId":"6204","route":"TTT","longitude":-80.39662,"isTripper":false,"direction":188,"lastStopCode":"1110","passengers":40,"timestamp":1505082063000,"lastStopName":"Squires Ebnd"}]}][{"requestType":17,"buses":[{"latitude":37.21012,"pattern":"Main Street - South","busId":"1916","route":"MSS","longitude":-80.39947,"isTripper":false,"direction":168,"lastStopCode":"1648","passengers":0,"timestamp":1505092902000,"lastStopName":"Main\/King Sbnd"},{"latitude":37.24162,"pattern":"Toms Creek Progress","busId":"6015","route":"TOM","longitude":-80.42547,"isTripper":false,"direction":60,"lastStopCode":"1304","passengers":15,"timestamp":1505092925000,"lastStopName":"Broce\/Toms Creek Ebnd"},{"latitude":37.24125,"pattern":"University City Blvd via Alumni Mall","busId":"1912","route":"UCB","longitude":-80.435,"isTripper":false,"direction":30,"lastStopCode":"1319","passengers":13,"timestamp":1505092917000,"lastStopName":"Shawnee on University City Nbnd"},{"latitude":37.22123,"pattern":"Hethwood Squires West to Burruss","busId":"6403","route":"HWD","longitude":-80.4521,"isTripper":false,"direction":212,"lastStopCode":"1203","passengers":22,"timestamp":1505092923000,"lastStopName":"Prices Fork\/Huntington Wbnd"},{"latitude":37.2167,"pattern":"Hokie Express via Downtown","busId":"2701","route":"HXP","longitude":-80.42205,"isTripper":false,"direction":254,"lastStopCode":"1127","passengers":3,"timestamp":1505092917000,"lastStopName":"Lane Stadium S Endzone Sbnd"},{"latitude":37.19702,"pattern":"Two Town Trolley No Hospital","busId":"6204","route":"TTT","longitude":-80.39662,"isTripper":false,"direction":188,"lastStopCode":"1110","passengers":40,"timestamp":1505082063000,"lastStopName":"Squires Ebnd"}]}][{"requestType":17,"buses":[{"latitude":37.21012,"pattern":"Main Street - South","busId":"1916","route":"MSS","longitude":-80.39947,"isTripper":false,"direction":168,"lastStopCode":"1648","passengers":0,"timestamp":1505092902000,"lastStopName":"Main\/King Sbnd"},{"latitude":37.24162,"pattern":"Toms Creek Progress","busId":"6015","route":"TOM","longitude":-80.42547,"isTripper":false,"direction":60,"lastStopCode":"1304","passengers":15,"timestamp":1505092925000,"lastStopName":"Broce\/Toms Creek Ebnd"},{"latitude":37.24125,"pattern":"University City Blvd via Alumni Mall","busId":"1912","route":"UCB","longitude":-80.435,"isTripper":false,"direction":30,"lastStopCode":"1319","passengers":13,"timestamp":1505092917000,"lastStopName":"Shawnee on University City Nbnd"},{"latitude":37.22123,"pattern":"Hethwood Squires West to Burruss","busId":"6403","route":"HWD","longitude":-80.4521,"isTripper":false,"direction":212,"lastStopCode":"1203","passengers":22,"timestamp":1505092923000,"lastStopName":"Prices Fork\/Huntington Wbnd"},{"latitude":37.2167,"pattern":"Hokie Express via Downtown","busId":"2701","route":"HXP","longitude":-80.42205,"isTripper":false,"direction":254,"lastStopCode":"1127","passengers":3,"timestamp":1505092917000,"lastStopName":"Lane Stadium S Endzone Sbnd"},{"latitude":37.19702,"pattern":"Two Town Trolley No Hospital","busId":"6204","route":"TTT","longitude":-80.39662,"isTripper":false,"direction":188,"lastStopCode":"1110","passengers":40,"timestamp":1505082063000,"lastStopName":"Squires Ebnd"}]}][{"requestType":17,"buses":[{"latitude":37.20862,"pattern":"Main Street - South","busId":"1916","route":"MSS","longitude":-80.39677,"isTripper":false,"direction":58,"lastStopCode":"1609","passengers":0,"timestamp":1505092983000,"lastStopName":"Fairfax\/Ellett Ebnd"},{"latitude":37.2423,"pattern":"Toms Creek Progress","busId":"6015","route":"TOM","longitude":-80.4222,"isTripper":false,"direction":4,"lastStopCode":"1305","passengers":15,"timestamp":1505092981000,"lastStopName":"Progress\/Broce Nbnd"},{"latitude":37.2423,"pattern":"University City Blvd via Alumni Mall","busId":"1912","route":"UCB","longitude":-80.43297,"isTripper":false,"direction":74,"lastStopCode":"1320","passengers":12,"timestamp":1505092979000,"lastStopName":"Shawnee on University City Ebnd"},{"latitude":37.21613,"pattern":"Hethwood Squires West to Burruss","busId":"6403","route":"HWD","longitude":-80.4535,"isTripper":false,"direction":174,"lastStopCode":"1204","passengers":22,"timestamp":1505092987000,"lastStopName":"Hethwood Square on Hethwood"},{"latitude":37.2196,"pattern":"Hokie Express via Downtown","busId":"2701","route":"HXP","longitude":-80.42595,"isTripper":false,"direction":330,"lastStopCode":"1127","passengers":3,"timestamp":1505092965000,"lastStopName":"Lane Stadium S Endzone Sbnd"},{"latitude":37.19702,"pattern":"Two Town Trolley No Hospital","busId":"6204","route":"TTT","longitude":-80.39662,"isTripper":false,"direction":188,"lastStopCode":"1110","passengers":40,"timestamp":1505082063000,"lastStopName":"Squires Ebnd"}]}][{"requestType":17,"buses":[{"latitude":37.20862,"pattern":"Main Street - South","busId":"1916","route":"MSS","longitude":-80.39675,"isTripper":false,"direction":56,"lastStopCode":"1609","passengers":0,"timestamp":1505093043000,"lastStopName":"Fairfax\/Ellett Ebnd"},{"latitude":37.24533,"pattern":"Toms Creek Progress","busId":"6015","route":"TOM","longitude":-80.42152,"isTripper":false,"direction":338,"lastStopCode":"1307","passengers":14,"timestamp":1505093050000,"lastStopName":"Progress\/Patrick Henry Nbnd"},{"latitude":37.24295,"pattern":"University City Blvd via Alumni Mall","busId":"1912","route":"UCB","longitude":-80.42972,"isTripper":false,"direction":76,"lastStopCode":"1322","passengers":6,"timestamp":1505093035000,"lastStopName":"University City\/Toms Creek Ebnd"},{"latitude":37.21447,"pattern":"Hethwood Squires West to Burruss","busId":"6403","route":"HWD","longitude":-80.45217,"isTripper":false,"direction":46,"lastStopCode":"1205","passengers":22,"timestamp":1505093047000,"lastStopName":"Tall Oaks\/Hethwood Ebnd"},{"latitude":37.22457,"pattern":"Hokie Express via Downtown","busId":"2701","route":"HXP","longitude":-80.43005,"isTripper":false,"direction":314,"lastStopCode":"1131","passengers":3,"timestamp":1505093042000,"lastStopName":"Bioinfomatics Bldg"},{"latitude":37.19702,"pattern":"Two Town Trolley No Hospital","busId":"6204","route":"TTT","longitude":-80.39662,"isTripper":false,"direction":188,"lastStopCode":"1110","passengers":40,"timestamp":1505082063000,"lastStopName":"Squires Ebnd"}]}][{"requestType":17,"buses":[{"latitude":37.20862,"pattern":"Main Street - South","busId":"1916","route":"MSS","longitude":-80.39675,"isTripper":false,"direction":56,"lastStopCode":"1609","passengers":0,"timestamp":1505093103000,"lastStopName":"Fairfax\/Ellett Ebnd"},{"latitude":37.24502,"pattern":"Toms Creek Progress","busId":"6015","route":"TOM","longitude":-80.42527,"isTripper":false,"direction":242,"lastStopCode":"1308","passengers":11,"timestamp":1505093115000,"lastStopName":"The Village on Patrick Henry Wbnd"},{"latitude":37.24397,"pattern":"University City Blvd via Alumni Mall","busId":"1912","route":"UCB","longitude":-80.42755,"isTripper":false,"direction":58,"lastStopCode":"1323","passengers":5,"timestamp":1505093105000,"lastStopName":"Patrick Henry\/Toms Creek Ebnd"},{"latitude":37.21647,"pattern":"Hethwood Squires West to Burruss","busId":"6403","route":"HWD","longitude":-80.44957,"isTripper":false,"direction":30,"lastStopCode":"1206","passengers":14,"timestamp":1505093109000,"lastStopName":"Tall Oaks\/Foxhunt Ebnd"},{"latitude":37.22482,"pattern":"Hokie Express via Downtown","busId":"2701","route":"HXP","longitude":-80.43475,"isTripper":false,"direction":278,"lastStopCode":"1117","passengers":3,"timestamp":1505093099000,"lastStopName":"Overflow Lot Wbnd"},{"latitude":37.19702,"pattern":"Two Town Trolley No Hospital","busId":"6204","route":"TTT","longitude":-80.39662,"isTripper":false,"direction":188,"lastStopCode":"1110","passengers":40,"timestamp":1505082063000,"lastStopName":"Squires Ebnd"}]}][{"requestType":17,"buses":[{"latitude":37.20862,"pattern":"Main Street - South","busId":"1916","route":"MSS","longitude":-80.39675,"isTripper":false,"direction":56,"lastStopCode":"1609","passengers":0,"timestamp":1505093103000,"lastStopName":"Fairfax\/Ellett Ebnd"},{"latitude":37.24502,"pattern":"Toms Creek Progress","busId":"6015","route":"TOM","longitude":-80.42527,"isTripper":false,"direction":242,"lastStopCode":"1308","passengers":11,"timestamp":1505093115000,"lastStopName":"The Village on Patrick Henry Wbnd"},{"latitude":37.24397,"pattern":"University City Blvd via Alumni Mall","busId":"1912","route":"UCB","longitude":-80.42755,"isTripper":false,"direction":58,"lastStopCode":"1323","passengers":5,"timestamp":1505093105000,"lastStopName":"Patrick Henry\/Toms Creek Ebnd"},{"latitude":37.21647,"pattern":"Hethwood Squires West to Burruss","busId":"6403","route":"HWD","longitude":-80.44957,"isTripper":false,"direction":30,"lastStopCode":"1206","passengers":14,"timestamp":1505093109000,"lastStopName":"Tall Oaks\/Foxhunt Ebnd"},{"latitude":37.22482,"pattern":"Hokie Express via Downtown","busId":"2701","route":"HXP","longitude":-80.43475,"isTripper":false,"direction":278,"lastStopCode":"1117","passengers":3,"timestamp":1505093099000,"lastStopName":"Overflow Lot Wbnd"},{"latitude":37.19702,"pattern":"Two Town Trolley No Hospital","busId":"6204","route":"TTT","longitude":-80.39662,"isTripper":false,"direction":188,"lastStopCode":"1110","passengers":40,"timestamp":1505082063000,"lastStopName":"Squires Ebnd"}]}][{"requestType":17,"buses":[{"latitude":37.20862,"pattern":"Main Street - South","busId":"1916","route":"MSS","longitude":-80.39675,"isTripper":false,"direction":56,"lastStopCode":"1609","passengers":0,"timestamp":1505093163000,"lastStopName":"Fairfax\/Ellett Ebnd"},{"latitude":37.24405,"pattern":"Toms Creek Progress","busId":"6015","route":"TOM","longitude":-80.42773,"isTripper":false,"direction":240,"lastStopCode":"1309","passengers":9,"timestamp":1505093159000,"lastStopName":"Patrick Henry\/Toms Creek Wbnd"},{"latitude":37.24397,"pattern":"University City Blvd via Alumni Mall","busId":"1912","route":"UCB","longitude":-80.42755,"isTripper":false,"direction":58,"lastStopCode":"1323","passengers":5,"timestamp":1505093165000,"lastStopName":"Patrick Henry\/Toms Creek Ebnd"},{"latitude":37.21658,"pattern":"Hethwood Squires West to Burruss","busId":"6403","route":"HWD","longitude":-80.44628,"isTripper":false,"direction":126,"lastStopCode":"1222","passengers":11,"timestamp":1505093173000,"lastStopName":"Tall Oaks\/Colonial Sbnd"},{"latitude":37.22637,"pattern":"Hokie Express via Downtown","busId":"2701","route":"HXP","longitude":-80.43745,"isTripper":false,"direction":246,"lastStopCode":"1118","passengers":3,"timestamp":1505093156000,"lastStopName":"Oak Lane North"},{"latitude":37.19702,"pattern":"Two Town Trolley No Hospital","busId":"6204","route":"TTT","longitude":-80.39662,"isTripper":false,"direction":188,"lastStopCode":"1110","passengers":40,"timestamp":1505082063000,"lastStopName":"Squires Ebnd"}]}][{"requestType":17,"buses":[{"latitude":37.20862,"pattern":"Main Street - South","busId":"1916","route":"MSS","longitude":-80.39675,"isTripper":false,"direction":56,"lastStopCode":"1609","passengers":0,"timestamp":1505093223000,"lastStopName":"Fairfax\/Ellett Ebnd"},{"latitude":37.24302,"pattern":"Toms Creek Progress","busId":"6015","route":"TOM","longitude":-80.42975,"isTripper":false,"direction":250,"lastStopCode":"1310","passengers":8,"timestamp":1505093222000,"lastStopName":"University City\/Toms Creek Wbnd"},{"latitude":37.24397,"pattern":"University City Blvd via Alumni Mall","busId":"1912","route":"UCB","longitude":-80.42755,"isTripper":false,"direction":58,"lastStopCode":"1323","passengers":5,"timestamp":1505093225000,"lastStopName":"Patrick Henry\/Toms Creek Ebnd"},{"latitude":37.21405,"pattern":"Hethwood Squires West to Burruss","busId":"6403","route":"HWD","longitude":-80.44435,"isTripper":false,"direction":174,"lastStopCode":"1208","passengers":7,"timestamp":1505093230000,"lastStopName":"Tall Oaks\/Foxtrail Sbnd"},{"latitude":37.22637,"pattern":"Hokie Express via Downtown","busId":"2701","route":"HXP","longitude":-80.43745,"isTripper":false,"direction":246,"lastStopCode":"1118","passengers":3,"timestamp":1505093216000,"lastStopName":"Oak Lane North"},{"latitude":37.19702,"pattern":"Two Town Trolley No Hospital","busId":"6204","route":"TTT","longitude":-80.39662,"isTripper":false,"direction":188,"lastStopCode":"1110","passengers":40,"timestamp":1505082063000,"lastStopName":"Squires Ebnd"}]}][{"requestType":17,"buses":[{"latitude":37.20862,"pattern":"Main Street - South","busId":"1916","route":"MSS","longitude":-80.39675,"isTripper":false,"direction":56,"lastStopCode":"1609","passengers":0,"timestamp":1505093223000,"lastStopName":"Fairfax\/Ellett Ebnd"},{"latitude":37.24302,"pattern":"Toms Creek Progress","busId":"6015","route":"TOM","longitude":-80.42975,"isTripper":false,"direction":250,"lastStopCode":"1310","passengers":8,"timestamp":1505093222000,"lastStopName":"University City\/Toms Creek Wbnd"},{"latitude":37.24397,"pattern":"University City Blvd via Alumni Mall","busId":"1912","route":"UCB","longitude":-80.42755,"isTripper":false,"direction":58,"lastStopCode":"1323","passengers":5,"timestamp":1505093225000,"lastStopName":"Patrick Henry\/Toms Creek Ebnd"},{"latitude":37.21405,"pattern":"Hethwood Squires West to Burruss","busId":"6403","route":"HWD","longitude":-80.44435,"isTripper":false,"direction":174,"lastStopCode":"1208","passengers":7,"timestamp":1505093230000,"lastStopName":"Tall Oaks\/Foxtrail Sbnd"},{"latitude":37.22637,"pattern":"Hokie Express via Downtown","busId":"2701","route":"HXP","longitude":-80.43745,"isTripper":false,"direction":246,"lastStopCode":"1118","passengers":3,"timestamp":1505093216000,"lastStopName":"Oak Lane North"},{"latitude":37.19702,"pattern":"Two Town Trolley No Hospital","busId":"6204","route":"TTT","longitude":-80.39662,"isTripper":false,"direction":188,"lastStopCode":"1110","passengers":40,"timestamp":1505082063000,"lastStopName":"Squires Ebnd"}]}][{"requestType":17,"buses":[{"latitude":37.20862,"pattern":"Main Street - South","busId":"1916","route":"MSS","longitude":-80.39675,"isTripper":false,"direction":56,"lastStopCode":"1609","passengers":0,"timestamp":1505093282000,"lastStopName":"Fairfax\/Ellett Ebnd"},{"latitude":37.24302,"pattern":"Toms Creek Progress","busId":"6015","route":"TOM","longitude":-80.42975,"isTripper":false,"direction":250,"lastStopCode":"1310","passengers":8,"timestamp":1505093282000,"lastStopName":"University City\/Toms Creek Wbnd"},{"latitude":37.24397,"pattern":"University City Blvd via Alumni Mall","busId":"1912","route":"UCB","longitude":-80.42755,"isTripper":false,"direction":58,"lastStopCode":"1323","passengers":5,"timestamp":1505093284000,"lastStopName":"Patrick Henry\/Toms Creek Ebnd"},{"latitude":37.21317,"pattern":"Hethwood Squires West to Burruss","busId":"6403","route":"HWD","longitude":-80.44422,"isTripper":false,"direction":172,"lastStopCode":"1209","passengers":6,"timestamp":1505093290000,"lastStopName":"Stroubles Cr"},{"latitude":37.22637,"pattern":"Hokie Express via Downtown","busId":"2701","route":"HXP","longitude":-80.43745,"isTripper":false,"direction":246,"lastStopCode":"1118","passengers":3,"timestamp":1505093276000,"lastStopName":"Oak Lane North"},{"latitude":37.19702,"pattern":"Two Town Trolley No Hospital","busId":"6204","route":"TTT","longitude":-80.39662,"isTripper":false,"direction":188,"lastStopCode":"1110","passengers":40,"timestamp":1505082063000,"lastStopName":"Squires Ebnd"}]}][{"requestType":17,"buses":[{"latitude":37.20862,"pattern":"Main Street - South","busId":"1916","route":"MSS","longitude":-80.39675,"isTripper":false,"direction":56,"lastStopCode":"1609","passengers":0,"timestamp":1505093343000,"lastStopName":"Fairfax\/Ellett Ebnd"},{"latitude":37.24302,"pattern":"Toms Creek Progress","busId":"6015","route":"TOM","longitude":-80.42975,"isTripper":false,"direction":250,"lastStopCode":"1310","passengers":8,"timestamp":1505093342000,"lastStopName":"University City\/Toms Creek Wbnd"},{"latitude":37.24397,"pattern":"University City Blvd via Alumni Mall","busId":"1912","route":"UCB","longitude":-80.42755,"isTripper":false,"direction":58,"lastStopCode":"1323","passengers":5,"timestamp":1505093344000,"lastStopName":"Patrick Henry\/Toms Creek Ebnd"},{"latitude":37.21317,"pattern":"Hethwood Squires West to Burruss","busId":"6403","route":"HWD","longitude":-80.44422,"isTripper":false,"direction":172,"lastStopCode":"1209","passengers":6,"timestamp":1505093350000,"lastStopName":"Stroubles Cr"},{"latitude":37.22637,"pattern":"Hokie Express via Downtown","busId":"2701","route":"HXP","longitude":-80.43745,"isTripper":false,"direction":246,"lastStopCode":"1118","passengers":3,"timestamp":1505093336000,"lastStopName":"Oak Lane North"},{"latitude":37.19702,"pattern":"Two Town Trolley No Hospital","busId":"6204","route":"TTT","longitude":-80.39662,"isTripper":false,"direction":188,"lastStopCode":"1110","passengers":40,"timestamp":1505082063000,"lastStopName":"Squires Ebnd"}]}][{"requestType":17,"buses":[{"latitude":37.20862,"pattern":"Main Street - South","busId":"1916","route":"MSS","longitude":-80.39675,"isTripper":false,"direction":56,"lastStopCode":"1609","passengers":0,"timestamp":1505093407000,"lastStopName":"Fairfax\/Ellett Ebnd"},{"latitude":37.24277,"pattern":"Toms Creek Progress","busId":"6015","route":"TOM","longitude":-80.43052,"isTripper":false,"direction":252,"lastStopCode":"1310","passengers":6,"timestamp":1505093426000,"lastStopName":"University City\/Toms Creek Wbnd"},{"latitude":37.24447,"pattern":"University City Blvd via Alumni Mall","busId":"1912","route":"UCB","longitude":-80.4263,"isTripper":false,"direction":64,"lastStopCode":"1323","passengers":3,"timestamp":1505093420000,"lastStopName":"Patrick Henry\/Toms Creek Ebnd"},{"latitude":37.21317,"pattern":"Hethwood Squires West to Burruss","busId":"6403","route":"HWD","longitude":-80.44422,"isTripper":false,"direction":172,"lastStopCode":"1209","passengers":6,"timestamp":1505093410000,"lastStopName":"Stroubles Cr"},{"latitude":37.22587,"pattern":"Hokie Express via Downtown","busId":"2701","route":"HXP","longitude":-80.43742,"isTripper":false,"direction":156,"lastStopCode":"1118","passengers":0,"timestamp":1505093421000,"lastStopName":"Oak Lane North"},{"latitude":37.19702,"pattern":"Two Town Trolley No Hospital","busId":"6204","route":"TTT","longitude":-80.39662,"isTripper":false,"direction":188,"lastStopCode":"1110","passengers":40,"timestamp":1505082063000,"lastStopName":"Squires Ebnd"}]}][{"requestType":17,"buses":[{"latitude":37.20862,"pattern":"Main Street - South","busId":"1916","route":"MSS","longitude":-80.39675,"isTripper":false,"direction":56,"lastStopCode":"1609","passengers":0,"timestamp":1505093407000,"lastStopName":"Fairfax\/Ellett Ebnd"},{"latitude":37.24277,"pattern":"Toms Creek Progress","busId":"6015","route":"TOM","longitude":-80.43052,"isTripper":false,"direction":252,"lastStopCode":"1310","passengers":6,"timestamp":1505093426000,"lastStopName":"University City\/Toms Creek Wbnd"},{"latitude":37.24447,"pattern":"University City Blvd via Alumni Mall","busId":"1912","route":"UCB","longitude":-80.4263,"isTripper":false,"direction":64,"lastStopCode":"1323","passengers":3,"timestamp":1505093420000,"lastStopName":"Patrick Henry\/Toms Creek Ebnd"},{"latitude":37.21317,"pattern":"Hethwood Squires West to Burruss","busId":"6403","route":"HWD","longitude":-80.44422,"isTripper":false,"direction":172,"lastStopCode":"1209","passengers":6,"timestamp":1505093410000,"lastStopName":"Stroubles Cr"},{"latitude":37.22587,"pattern":"Hokie Express via Downtown","busId":"2701","route":"HXP","longitude":-80.43742,"isTripper":false,"direction":156,"lastStopCode":"1118","passengers":0,"timestamp":1505093421000,"lastStopName":"Oak Lane North"},{"latitude":37.19702,"pattern":"Two Town Trolley No Hospital","busId":"6204","route":"TTT","longitude":-80.39662,"isTripper":false,"direction":188,"lastStopCode":"1110","passengers":40,"timestamp":1505082063000,"lastStopName":"Squires Ebnd"}]}][{"requestType":17,"buses":[{"latitude":37.21037,"pattern":"Main Street - South","busId":"1916","route":"MSS","longitude":-80.3957,"isTripper":false,"direction":356,"lastStopCode":"1611","passengers":1,"timestamp":1505093475000,"lastStopName":"New Kent\/Loudon Ebnd"},{"latitude":37.242,"pattern":"Toms Creek Progress","busId":"6015","route":"TOM","longitude":-80.43442,"isTripper":false,"direction":248,"lastStopCode":"1311","passengers":3,"timestamp":1505093480000,"lastStopName":"Shawnee on University City Wbnd"},{"latitude":37.24595,"pattern":"University City Blvd via Alumni Mall","busId":"1912","route":"UCB","longitude":-80.42195,"isTripper":false,"direction":154,"lastStopCode":"1325","passengers":3,"timestamp":1505093480000,"lastStopName":"Patrick Henry\/Progress Ebnd"},{"latitude":37.21317,"pattern":"Hethwood Squires West to Burruss","busId":"6403","route":"HWD","longitude":-80.44422,"isTripper":false,"direction":172,"lastStopCode":"1209","passengers":6,"timestamp":1505093470000,"lastStopName":"Stroubles Cr"},{"latitude":37.22407,"pattern":"Hokie Express via Downtown","busId":"2701","route":"HXP","longitude":-80.43312,"isTripper":false,"direction":130,"lastStopCode":"1119","passengers":0,"timestamp":1505093483000,"lastStopName":"Oak Lane South"},{"latitude":37.19702,"pattern":"Two Town Trolley No Hospital","busId":"6204","route":"TTT","longitude":-80.39662,"isTripper":false,"direction":188,"lastStopCode":"1110","passengers":40,"timestamp":1505082063000,"lastStopName":"Squires Ebnd"}]}][{"requestType":17,"buses":[{"latitude":37.21297,"pattern":"Main Street - South","busId":"1916","route":"MSS","longitude":-80.39442,"isTripper":false,"direction":250,"lastStopCode":"1614","passengers":1,"timestamp":1505093549000,"lastStopName":"Marlington\/Grissom Wbnd"},{"latitude":37.2358,"pattern":"Toms Creek Progress","busId":"6015","route":"TOM","longitude":-80.43415,"isTripper":false,"direction":158,"lastStopCode":"1314","passengers":3,"timestamp":1505093555000,"lastStopName":"University City\/Glade Sbnd"},{"latitude":37.24237,"pattern":"University City Blvd via Alumni Mall","busId":"1912","route":"UCB","longitude":-80.4223,"isTripper":false,"direction":184,"lastStopCode":"1328","passengers":3,"timestamp":1505093539000,"lastStopName":"Progress\/Broce Sbnd"},{"latitude":37.21655,"pattern":"Hethwood Squires West to Burruss","busId":"6403","route":"HWD","longitude":-80.44608,"isTripper":false,"direction":304,"lastStopCode":"1211","passengers":6,"timestamp":1505093544000,"lastStopName":"Tall Oaks\/Copper Croft Nbnd"},{"latitude":37.22362,"pattern":"Hokie Express via Downtown","busId":"2701","route":"HXP","longitude":-80.42887,"isTripper":false,"direction":150,"lastStopCode":"1120","passengers":0,"timestamp":1505093547000,"lastStopName":"Overflow Lot Ebnd"},{"latitude":37.19702,"pattern":"Two Town Trolley No Hospital","busId":"6204","route":"TTT","longitude":-80.39662,"isTripper":false,"direction":188,"lastStopCode":"1110","passengers":40,"timestamp":1505082063000,"lastStopName":"Squires Ebnd"}]}][{"requestType":17,"buses":[{"latitude":37.2116,"pattern":"Main Street - South","busId":"1916","route":"MSS","longitude":-80.39907,"isTripper":false,"direction":250,"lastStopCode":"1616","passengers":0,"timestamp":1505093612000,"lastStopName":"Marlington\/Grayland Wbnd"},{"latitude":37.23312,"pattern":"Toms Creek Progress","busId":"6015","route":"TOM","longitude":-80.4328,"isTripper":false,"direction":170,"lastStopCode":"1315","passengers":2,"timestamp":1505093615000,"lastStopName":"University Mall Sbnd"},{"latitude":37.24192,"pattern":"University City Blvd via Alumni Mall","busId":"1912","route":"UCB","longitude":-80.42232,"isTripper":false,"direction":182,"lastStopCode":"1328","passengers":3,"timestamp":1505093609000,"lastStopName":"Progress\/Broce Sbnd"},{"latitude":37.2188,"pattern":"Hethwood Squires West to Burruss","busId":"6403","route":"HWD","longitude":-80.44813,"isTripper":false,"direction":10,"lastStopCode":"1212","passengers":6,"timestamp":1505093614000,"lastStopName":"Heather\/Tall Oaks Nbnd"},{"latitude":37.21978,"pattern":"Hokie Express via Downtown","busId":"2701","route":"HXP","longitude":-80.4261,"isTripper":false,"direction":150,"lastStopCode":"1121","passengers":0,"timestamp":1505093605000,"lastStopName":"I Lot\/Cage Sbnd"},{"latitude":37.19702,"pattern":"Two Town Trolley No Hospital","busId":"6204","route":"TTT","longitude":-80.39662,"isTripper":false,"direction":188,"lastStopCode":"1110","passengers":40,"timestamp":1505082063000,"lastStopName":"Squires Ebnd"}]}][{"requestType":17,"buses":[{"latitude":37.2116,"pattern":"Main Street - South","busId":"1916","route":"MSS","longitude":-80.39907,"isTripper":false,"direction":250,"lastStopCode":"1616","passengers":0,"timestamp":1505093612000,"lastStopName":"Marlington\/Grayland Wbnd"},{"latitude":37.23312,"pattern":"Toms Creek Progress","busId":"6015","route":"TOM","longitude":-80.4328,"isTripper":false,"direction":170,"lastStopCode":"1315","passengers":2,"timestamp":1505093615000,"lastStopName":"University Mall Sbnd"},{"latitude":37.24182,"pattern":"University City Blvd via Alumni Mall","busId":"1912","route":"UCB","longitude":-80.42232,"isTripper":false,"direction":180,"lastStopCode":"1328","passengers":0,"timestamp":1505093611000,"lastStopName":"Progress\/Broce Sbnd"},{"latitude":37.2188,"pattern":"Hethwood Squires West to Burruss","busId":"6403","route":"HWD","longitude":-80.44813,"isTripper":false,"direction":10,"lastStopCode":"1212","passengers":6,"timestamp":1505093614000,"lastStopName":"Heather\/Tall Oaks Nbnd"},{"latitude":37.21978,"pattern":"Hokie Express via Downtown","busId":"2701","route":"HXP","longitude":-80.4261,"isTripper":false,"direction":150,"lastStopCode":"1121","passengers":0,"timestamp":1505093605000,"lastStopName":"I Lot\/Cage Sbnd"},{"latitude":37.19702,"pattern":"Two Town Trolley No Hospital","busId":"6204","route":"TTT","longitude":-80.39662,"isTripper":false,"direction":188,"lastStopCode":"1110","passengers":40,"timestamp":1505082063000,"lastStopName":"Squires Ebnd"}]}][{"requestType":17,"buses":[{"latitude":37.21295,"pattern":"Main Street - South","busId":"1916","route":"MSS","longitude":-80.39997,"isTripper":false,"direction":346,"lastStopCode":"1618","passengers":0,"timestamp":1505093661000,"lastStopName":"Main\/Landsdowne Nbnd"},{"latitude":37.23193,"pattern":"Toms Creek Progress","busId":"6015","route":"TOM","longitude":-80.43297,"isTripper":false,"direction":184,"lastStopCode":"1315","passengers":2,"timestamp":1505093657000,"lastStopName":"University Mall Sbnd"},{"latitude":37.2377,"pattern":"University City Blvd via Alumni Mall","busId":"1912","route":"UCB","longitude":-80.4211,"isTripper":false,"direction":146,"lastStopCode":"1340","passengers":0,"timestamp":1505093661000,"lastStopName":"Progress\/Watson Sbnd"},{"latitude":37.22263,"pattern":"Hethwood Squires West to Burruss","busId":"6403","route":"HWD","longitude":-80.44998,"isTripper":false,"direction":304,"lastStopCode":"1214","passengers":6,"timestamp":1505093670000,"lastStopName":"Heather\/Huntington Nbnd"},{"latitude":37.217,"pattern":"Hokie Express via Downtown","busId":"2701","route":"HXP","longitude":-80.42067,"isTripper":false,"direction":74,"lastStopCode":"1121","passengers":0,"timestamp":1505093677000,"lastStopName":"I Lot\/Cage Sbnd"},{"latitude":37.19702,"pattern":"Two Town Trolley No Hospital","busId":"6204","route":"TTT","longitude":-80.39662,"isTripper":false,"direction":188,"lastStopCode":"1110","passengers":40,"timestamp":1505082063000,"lastStopName":"Squires Ebnd"}]}][{"requestType":17,"buses":[{"latitude":37.21392,"pattern":"Main Street - South","busId":"1916","route":"MSS","longitude":-80.40025,"isTripper":false,"direction":346,"lastStopCode":"1619","passengers":0,"timestamp":1505093726000,"lastStopName":"Main\/Ardmore Nbnd"},{"latitude":37.23005,"pattern":"Toms Creek Progress","busId":"6015","route":"TOM","longitude":-80.42843,"isTripper":false,"direction":152,"lastStopCode":"1315","passengers":2,"timestamp":1505093739000,"lastStopName":"University Mall Sbnd"},{"latitude":37.23555,"pattern":"University City Blvd via Alumni Mall","busId":"1912","route":"UCB","longitude":-80.42097,"isTripper":false,"direction":156,"lastStopCode":"1421","passengers":0,"timestamp":1505093731000,"lastStopName":"Main\/Kabrich Sbnd"},{"latitude":37.22568,"pattern":"Hethwood Squires West to Burruss","busId":"6403","route":"HWD","longitude":-80.4435,"isTripper":false,"direction":74,"lastStopCode":"1216","passengers":6,"timestamp":1505093735000,"lastStopName":"Prices Fork\/Plantation Ebnd"},{"latitude":37.2195,"pattern":"Hokie Express via Downtown","busId":"2701","route":"HXP","longitude":-80.41947,"isTripper":false,"direction":336,"lastStopCode":"1128","passengers":0,"timestamp":1505093735000,"lastStopName":"Lane Stadium S Endzone Nbnd"},{"latitude":37.19702,"pattern":"Two Town Trolley No Hospital","busId":"6204","route":"TTT","longitude":-80.39662,"isTripper":false,"direction":188,"lastStopCode":"1110","passengers":40,"timestamp":1505082063000,"lastStopName":"Squires Ebnd"}]}][{"requestType":17,"buses":[{"latitude":37.21392,"pattern":"Main Street - South","busId":"1916","route":"MSS","longitude":-80.40025,"isTripper":false,"direction":346,"lastStopCode":"1619","passengers":0,"timestamp":1505093726000,"lastStopName":"Main\/Ardmore Nbnd"},{"latitude":37.23005,"pattern":"Toms Creek Progress","busId":"6015","route":"TOM","longitude":-80.42843,"isTripper":false,"direction":152,"lastStopCode":"1315","passengers":2,"timestamp":1505093739000,"lastStopName":"University Mall Sbnd"},{"latitude":37.23555,"pattern":"University City Blvd via Alumni Mall","busId":"1912","route":"UCB","longitude":-80.42097,"isTripper":false,"direction":156,"lastStopCode":"1421","passengers":0,"timestamp":1505093731000,"lastStopName":"Main\/Kabrich Sbnd"},{"latitude":37.22568,"pattern":"Hethwood Squires West to Burruss","busId":"6403","route":"HWD","longitude":-80.4435,"isTripper":false,"direction":74,"lastStopCode":"1216","passengers":6,"timestamp":1505093735000,"lastStopName":"Prices Fork\/Plantation Ebnd"},{"latitude":37.2195,"pattern":"Hokie Express via Downtown","busId":"2701","route":"HXP","longitude":-80.41947,"isTripper":false,"direction":336,"lastStopCode":"1128","passengers":0,"timestamp":1505093735000,"lastStopName":"Lane Stadium S Endzone Nbnd"},{"latitude":37.19702,"pattern":"Two Town Trolley No Hospital","busId":"6204","route":"TTT","longitude":-80.39662,"isTripper":false,"direction":188,"lastStopCode":"1110","passengers":40,"timestamp":1505082063000,"lastStopName":"Squires Ebnd"}]}][{"requestType":17,"buses":[{"latitude":37.21502,"pattern":"Main Street - South","busId":"1916","route":"MSS","longitude":-80.40055,"isTripper":false,"direction":346,"lastStopCode":"1619","passengers":0,"timestamp":1505093793000,"lastStopName":"Main\/Ardmore Nbnd"},{"latitude":37.22483,"pattern":"Toms Creek Progress","busId":"6015","route":"TOM","longitude":-80.42488,"isTripper":false,"direction":154,"lastStopCode":"1115","passengers":2,"timestamp":1505093796000,"lastStopName":"Wright House"},{"latitude":37.23242,"pattern":"University City Blvd via Alumni Mall","busId":"1912","route":"UCB","longitude":-80.41707,"isTripper":false,"direction":132,"lastStopCode":"1423","passengers":0,"timestamp":1505093795000,"lastStopName":"Main\/Turner Sbnd"},{"latitude":37.23155,"pattern":"Hethwood Squires West to Burruss","busId":"6403","route":"HWD","longitude":-80.43377,"isTripper":false,"direction":78,"lastStopCode":"1218","passengers":6,"timestamp":1505093804000,"lastStopName":"Prices Fork\/Old Glade Ebnd"},{"latitude":37.2231,"pattern":"Hokie Express via Downtown","busId":"2701","route":"HXP","longitude":-80.41947,"isTripper":false,"direction":46,"lastStopCode":"1124","passengers":0,"timestamp":1505093793000,"lastStopName":"Cassell Coliseum"},{"latitude":37.19702,"pattern":"Two Town Trolley No Hospital","busId":"6204","route":"TTT","longitude":-80.39662,"isTripper":false,"direction":188,"lastStopCode":"1110","passengers":40,"timestamp":1505082063000,"lastStopName":"Squires Ebnd"}]}][{"requestType":17,"buses":[{"latitude":37.21985,"pattern":"Main Street - South","busId":"1916","route":"MSS","longitude":-80.40332,"isTripper":false,"direction":316,"lastStopCode":"1621","passengers":0,"timestamp":1505093859000,"lastStopName":"Main\/Cohee Nbnd"},{"latitude":37.2224,"pattern":"Toms Creek Progress","busId":"6015","route":"TOM","longitude":-80.42355,"isTripper":false,"direction":158,"lastStopCode":"1116","passengers":2,"timestamp":1505093870000,"lastStopName":"Litton Reaves Hall"},{"latitude":37.2296,"pattern":"University City Blvd via Alumni Mall","busId":"1912","route":"UCB","longitude":-80.41937,"isTripper":false,"direction":224,"lastStopCode":"1113","passengers":0,"timestamp":1505093864000,"lastStopName":"Squires Wbnd"},{"latitude":37.23157,"pattern":"Hethwood Squires West to Burruss","busId":"6403","route":"HWD","longitude":-80.43253,"isTripper":false,"direction":96,"lastStopCode":"1218","passengers":6,"timestamp":1505093861000,"lastStopName":"Prices Fork\/Old Glade Ebnd"},{"latitude":37.22558,"pattern":"Hokie Express via Downtown","busId":"2701","route":"HXP","longitude":-80.4159,"isTripper":false,"direction":50,"lastStopCode":"1125","passengers":1,"timestamp":1505093851000,"lastStopName":"Tennis Courts"},{"latitude":37.19702,"pattern":"Two Town Trolley No Hospital","busId":"6204","route":"TTT","longitude":-80.39662,"isTripper":false,"direction":188,"lastStopCode":"1110","passengers":40,"timestamp":1505082063000,"lastStopName":"Squires Ebnd"}]}][{"requestType":17,"buses":[{"latitude":37.2256,"pattern":"Main Street - South","busId":"1916","route":"MSS","longitude":-80.40985,"isTripper":false,"direction":318,"lastStopCode":"1625","passengers":0,"timestamp":1505093925000,"lastStopName":"Main\/Eakin Nbnd"},{"latitude":37.22105,"pattern":"Toms Creek Progress","busId":"6015","route":"TOM","longitude":-80.4225,"isTripper":false,"direction":44,"lastStopCode":"1123","passengers":3,"timestamp":1505093930000,"lastStopName":"McComas Hall"},{"latitude":37.22865,"pattern":"University City Blvd via Alumni Mall","busId":"1912","route":"UCB","longitude":-80.42265,"isTripper":false,"direction":230,"lastStopCode":"1101","passengers":0,"timestamp":1505093927000,"lastStopName":"Burruss Hall"},{"latitude":37.2328,"pattern":"Hethwood Squires West to Burruss","busId":"6403","route":"HWD","longitude":-80.42592,"isTripper":false,"direction":60,"lastStopCode":"1218","passengers":6,"timestamp":1505093910000,"lastStopName":"Prices Fork\/Old Glade Ebnd"},{"latitude":37.2275,"pattern":"Hokie Express via Downtown","busId":"2701","route":"HXP","longitude":-80.41307,"isTripper":false,"direction":54,"lastStopCode":"1125","passengers":1,"timestamp":1505093902000,"lastStopName":"Tennis Courts"},{"latitude":37.19702,"pattern":"Two Town Trolley No Hospital","busId":"6204","route":"TTT","longitude":-80.39662,"isTripper":false,"direction":188,"lastStopCode":"1110","passengers":40,"timestamp":1505082063000,"lastStopName":"Squires Ebnd"}]}][{"requestType":17,"buses":[{"latitude":37.2256,"pattern":"Main Street - South","busId":"1916","route":"MSS","longitude":-80.40985,"isTripper":false,"direction":318,"lastStopCode":"1625","passengers":0,"timestamp":1505093925000,"lastStopName":"Main\/Eakin Nbnd"},{"latitude":37.22105,"pattern":"Toms Creek Progress","busId":"6015","route":"TOM","longitude":-80.4225,"isTripper":false,"direction":44,"lastStopCode":"1123","passengers":3,"timestamp":1505093930000,"lastStopName":"McComas Hall"},{"latitude":37.22865,"pattern":"University City Blvd via Alumni Mall","busId":"1912","route":"UCB","longitude":-80.42265,"isTripper":false,"direction":230,"lastStopCode":"1101","passengers":0,"timestamp":1505093927000,"lastStopName":"Burruss Hall"},{"latitude":37.2328,"pattern":"Hethwood Squires West to Burruss","busId":"6403","route":"HWD","longitude":-80.42592,"isTripper":false,"direction":60,"lastStopCode":"1218","passengers":6,"timestamp":1505093910000,"lastStopName":"Prices Fork\/Old Glade Ebnd"},{"latitude":37.2275,"pattern":"Hokie Express via Downtown","busId":"2701","route":"HXP","longitude":-80.41307,"isTripper":false,"direction":54,"lastStopCode":"1125","passengers":1,"timestamp":1505093902000,"lastStopName":"Tennis Courts"},{"latitude":37.19702,"pattern":"Two Town Trolley No Hospital","busId":"6204","route":"TTT","longitude":-80.39662,"isTripper":false,"direction":188,"lastStopCode":"1110","passengers":40,"timestamp":1505082063000,"lastStopName":"Squires Ebnd"}]}][{"requestType":17,"buses":[{"latitude":37.22917,"pattern":"Main Street - South","busId":"1916","route":"MSS","longitude":-80.41377,"isTripper":false,"direction":318,"lastStopCode":"1627","passengers":0,"timestamp":1505093988000,"lastStopName":"Main\/Lee Nbnd"},{"latitude":37.2231,"pattern":"Toms Creek Progress","busId":"6015","route":"TOM","longitude":-80.41947,"isTripper":false,"direction":48,"lastStopCode":"1124","passengers":5,"timestamp":1505093993000,"lastStopName":"Cassell Coliseum"},{"latitude":37.22845,"pattern":"University City Blvd via Alumni Mall","busId":"1912","route":"UCB","longitude":-80.42295,"isTripper":false,"direction":230,"lastStopCode":"1101","passengers":0,"timestamp":1505093991000,"lastStopName":"Burruss Hall"},{"latitude":37.2307,"pattern":"Hethwood Squires West to Burruss","busId":"6403","route":"HWD","longitude":-80.4212,"isTripper":false,"direction":138,"lastStopCode":"1106","passengers":6,"timestamp":1505093977000,"lastStopName":"McBryde Hall"},{"latitude":37.23153,"pattern":"Hokie Express via Downtown","busId":"2701","route":"HXP","longitude":-80.41607,"isTripper":false,"direction":316,"lastStopCode":"1628","passengers":1,"timestamp":1505093992000,"lastStopName":"Main St Post Office"},{"latitude":37.19702,"pattern":"Two Town Trolley No Hospital","busId":"6204","route":"TTT","longitude":-80.39662,"isTripper":false,"direction":188,"lastStopCode":"1110","passengers":40,"timestamp":1505082063000,"lastStopName":"Squires Ebnd"}]}][{"requestType":17,"buses":[{"latitude":37.23122,"pattern":"Main Street - South","busId":"1916","route":"MSS","longitude":-80.4167,"isTripper":false,"direction":232,"lastStopCode":"1112","passengers":0,"timestamp":1505094034000,"lastStopName":"Alumni Mall Wbnd"},{"latitude":37.22535,"pattern":"Toms Creek Progress","busId":"6015","route":"TOM","longitude":-80.41625,"isTripper":false,"direction":48,"lastStopCode":"1125","passengers":6,"timestamp":1505094045000,"lastStopName":"Tennis Courts"},{"latitude":37.22845,"pattern":"University City Blvd via Alumni Mall","busId":"1912","route":"UCB","longitude":-80.42295,"isTripper":false,"direction":230,"lastStopCode":"1101","passengers":0,"timestamp":1505094053000,"lastStopName":"Burruss Hall"},{"latitude":37.2299,"pattern":"Harding Ave Night","busId":"6403","route":"HDG","longitude":-80.41853,"isTripper":false,"direction":50,"lastStopCode":"1110","passengers":6,"timestamp":1505094057000,"lastStopName":"Squires Ebnd"},{"latitude":37.22982,"pattern":"Hokie Express via Downtown","busId":"2701","route":"HXP","longitude":-80.41913,"isTripper":false,"direction":232,"lastStopCode":"1113","passengers":1,"timestamp":1505094051000,"lastStopName":"Squires Wbnd"},{"latitude":37.19702,"pattern":"Two Town Trolley No Hospital","busId":"6204","route":"TTT","longitude":-80.39662,"isTripper":false,"direction":188,"lastStopCode":"1110","passengers":40,"timestamp":1505082063000,"lastStopName":"Squires Ebnd"}]}][{"requestType":17,"buses":[{"latitude":37.23122,"pattern":"Main Street - South","busId":"1916","route":"MSS","longitude":-80.4167,"isTripper":false,"direction":232,"lastStopCode":"1112","passengers":0,"timestamp":1505094034000,"lastStopName":"Alumni Mall Wbnd"},{"latitude":37.22535,"pattern":"Toms Creek Progress","busId":"6015","route":"TOM","longitude":-80.41625,"isTripper":false,"direction":48,"lastStopCode":"1125","passengers":6,"timestamp":1505094045000,"lastStopName":"Tennis Courts"},{"latitude":37.22845,"pattern":"University City Blvd via Alumni Mall","busId":"1912","route":"UCB","longitude":-80.42295,"isTripper":false,"direction":230,"lastStopCode":"1101","passengers":0,"timestamp":1505094053000,"lastStopName":"Burruss Hall"},{"latitude":37.2299,"pattern":"Harding Ave Night","busId":"6403","route":"HDG","longitude":-80.41853,"isTripper":false,"direction":50,"lastStopCode":"1110","passengers":6,"timestamp":1505094057000,"lastStopName":"Squires Ebnd"},{"latitude":37.22982,"pattern":"Hokie Express via Downtown","busId":"2701","route":"HXP","longitude":-80.41913,"isTripper":false,"direction":232,"lastStopCode":"1113","passengers":1,"timestamp":1505094051000,"lastStopName":"Squires Wbnd"},{"latitude":37.19702,"pattern":"Two Town Trolley No Hospital","busId":"6204","route":"TTT","longitude":-80.39662,"isTripper":false,"direction":188,"lastStopCode":"1110","passengers":40,"timestamp":1505082063000,"lastStopName":"Squires Ebnd"}]}][{"requestType":17,"buses":[{"latitude":37.22987,"pattern":"Main Street - North via Giles\/Patrick Henry","busId":"1916","route":"MSN","longitude":-80.41897,"isTripper":false,"direction":232,"lastStopCode":"1113","passengers":0,"timestamp":1505094102000,"lastStopName":"Squires Wbnd"},{"latitude":37.22767,"pattern":"Toms Creek Progress","busId":"6015","route":"TOM","longitude":-80.41787,"isTripper":false,"direction":294,"lastStopCode":"1125","passengers":6,"timestamp":1505094102000,"lastStopName":"Tennis Courts"},{"latitude":37.22845,"pattern":"University City Blvd via Alumni Mall","busId":"1912","route":"UCB","longitude":-80.42295,"isTripper":false,"direction":230,"lastStopCode":"1101","passengers":0,"timestamp":1505094110000,"lastStopName":"Burruss Hall"},{"latitude":37.2299,"pattern":"Harding Ave Night","busId":"6403","route":"HDG","longitude":-80.41853,"isTripper":false,"direction":50,"lastStopCode":"1110","passengers":6,"timestamp":1505094117000,"lastStopName":"Squires Ebnd"},{"latitude":37.22982,"pattern":"Hokie Express via Downtown","busId":"2701","route":"HXP","longitude":-80.41913,"isTripper":false,"direction":232,"lastStopCode":"1113","passengers":1,"timestamp":1505094111000,"lastStopName":"Squires Wbnd"},{"latitude":37.19702,"pattern":"Two Town Trolley No Hospital","busId":"6204","route":"TTT","longitude":-80.39662,"isTripper":false,"direction":188,"lastStopCode":"1110","passengers":40,"timestamp":1505082063000,"lastStopName":"Squires Ebnd"}]}][{"requestType":17,"buses":[{"latitude":37.22987,"pattern":"Main Street - North via Giles\/Patrick Henry","busId":"1916","route":"MSN","longitude":-80.41897,"isTripper":false,"direction":232,"lastStopCode":"1113","passengers":0,"timestamp":1505094162000,"lastStopName":"Squires Wbnd"},{"latitude":37.22857,"pattern":"Toms Creek Progress","busId":"6015","route":"TOM","longitude":-80.41972,"isTripper":false,"direction":300,"lastStopCode":"1100","passengers":6,"timestamp":1505094173000,"lastStopName":"Newman Library"},{"latitude":37.22845,"pattern":"University City Blvd via Alumni Mall","busId":"1912","route":"UCB","longitude":-80.42295,"isTripper":false,"direction":230,"lastStopCode":"1101","passengers":0,"timestamp":1505094174000,"lastStopName":"Burruss Hall"},{"latitude":37.2299,"pattern":"Harding Ave Night","busId":"6403","route":"HDG","longitude":-80.41853,"isTripper":false,"direction":50,"lastStopCode":"1110","passengers":6,"timestamp":1505094177000,"lastStopName":"Squires Ebnd"},{"latitude":37.22982,"pattern":"Hokie Express via Downtown","busId":"2701","route":"HXP","longitude":-80.41913,"isTripper":false,"direction":232,"lastStopCode":"1113","passengers":1,"timestamp":1505094171000,"lastStopName":"Squires Wbnd"},{"latitude":37.19702,"pattern":"Two Town Trolley No Hospital","busId":"6204","route":"TTT","longitude":-80.39662,"isTripper":false,"direction":188,"lastStopCode":"1110","passengers":40,"timestamp":1505082063000,"lastStopName":"Squires Ebnd"}]}][{"requestType":17,"buses":[{"latitude":37.22987,"pattern":"Main Street - North via Giles\/Patrick Henry","busId":"1916","route":"MSN","longitude":-80.41897,"isTripper":false,"direction":232,"lastStopCode":"1113","passengers":0,"timestamp":1505094222000,"lastStopName":"Squires Wbnd"},{"latitude":37.22972,"pattern":"Toms Creek Progress","busId":"6015","route":"TOM","longitude":-80.42083,"isTripper":false,"direction":316,"lastStopCode":"1114","passengers":6,"timestamp":1505094243000,"lastStopName":"Torgersen Hall"},{"latitude":37.22845,"pattern":"University City Blvd via Alumni Mall","busId":"1912","route":"UCB","longitude":-80.42295,"isTripper":false,"direction":230,"lastStopCode":"1101","passengers":0,"timestamp":1505094230000,"lastStopName":"Burruss Hall"},{"latitude":37.2299,"pattern":"Harding Ave Night","busId":"6403","route":"HDG","longitude":-80.41853,"isTripper":false,"direction":50,"lastStopCode":"1110","passengers":6,"timestamp":1505094237000,"lastStopName":"Squires Ebnd"},{"latitude":37.22982,"pattern":"Hokie Express via Downtown","busId":"2701","route":"HXP","longitude":-80.41913,"isTripper":false,"direction":232,"lastStopCode":"1113","passengers":1,"timestamp":1505094231000,"lastStopName":"Squires Wbnd"},{"latitude":37.19702,"pattern":"Two Town Trolley No Hospital","busId":"6204","route":"TTT","longitude":-80.39662,"isTripper":false,"direction":188,"lastStopCode":"1110","passengers":40,"timestamp":1505082063000,"lastStopName":"Squires Ebnd"}]}][{"requestType":17,"buses":[{"latitude":37.22987,"pattern":"Main Street - North via Giles\/Patrick Henry","busId":"1916","route":"MSN","longitude":-80.41897,"isTripper":false,"direction":232,"lastStopCode":"1113","passengers":0,"timestamp":1505094222000,"lastStopName":"Squires Wbnd"},{"latitude":37.22972,"pattern":"Toms Creek Progress","busId":"6015","route":"TOM","longitude":-80.42083,"isTripper":false,"direction":316,"lastStopCode":"1114","passengers":6,"timestamp":1505094243000,"lastStopName":"Torgersen Hall"},{"latitude":37.22845,"pattern":"University City Blvd via Alumni Mall","busId":"1912","route":"UCB","longitude":-80.42295,"isTripper":false,"direction":230,"lastStopCode":"1101","passengers":0,"timestamp":1505094230000,"lastStopName":"Burruss Hall"},{"latitude":37.2299,"pattern":"Harding Ave Night","busId":"6403","route":"HDG","longitude":-80.41853,"isTripper":false,"direction":50,"lastStopCode":"1110","passengers":6,"timestamp":1505094237000,"lastStopName":"Squires Ebnd"},{"latitude":37.22982,"pattern":"Hokie Express via Downtown","busId":"2701","route":"HXP","longitude":-80.41913,"isTripper":false,"direction":232,"lastStopCode":"1113","passengers":1,"timestamp":1505094231000,"lastStopName":"Squires Wbnd"},{"latitude":37.19702,"pattern":"Two Town Trolley No Hospital","busId":"6204","route":"TTT","longitude":-80.39662,"isTripper":false,"direction":188,"lastStopCode":"1110","passengers":40,"timestamp":1505082063000,"lastStopName":"Squires Ebnd"}]}][{"requestType":17,"buses":[{"latitude":37.22987,"pattern":"Main Street - North via Giles\/Patrick Henry","busId":"1916","route":"MSN","longitude":-80.41897,"isTripper":false,"direction":232,"lastStopCode":"1113","passengers":0,"timestamp":1505094282000,"lastStopName":"Squires Wbnd"},{"latitude":37.22972,"pattern":"Toms Creek Progress","busId":"6015","route":"TOM","longitude":-80.42083,"isTripper":false,"direction":316,"lastStopCode":"1114","passengers":6,"timestamp":1505094308000,"lastStopName":"Torgersen Hall"},{"latitude":37.22845,"pattern":"University City Blvd via Alumni Mall","busId":"1912","route":"UCB","longitude":-80.42295,"isTripper":false,"direction":230,"lastStopCode":"1101","passengers":0,"timestamp":1505094297000,"lastStopName":"Burruss Hall"},{"latitude":37.2299,"pattern":"Harding Ave Night","busId":"6403","route":"HDG","longitude":-80.41853,"isTripper":false,"direction":50,"lastStopCode":"1110","passengers":6,"timestamp":1505094291000,"lastStopName":"Squires Ebnd"},{"latitude":37.22982,"pattern":"Hokie Express via Downtown","busId":"2701","route":"HXP","longitude":-80.41913,"isTripper":false,"direction":232,"lastStopCode":"1113","passengers":1,"timestamp":1505094307000,"lastStopName":"Squires Wbnd"},{"latitude":37.19702,"pattern":"Two Town Trolley No Hospital","busId":"6204","route":"TTT","longitude":-80.39662,"isTripper":false,"direction":188,"lastStopCode":"1110","passengers":40,"timestamp":1505082063000,"lastStopName":"Squires Ebnd"}]}][{"requestType":17,"buses":[{"latitude":37.22967,"pattern":"Main Street - North via Giles\/Patrick Henry","busId":"1916","route":"MSN","longitude":-80.41925,"isTripper":false,"direction":230,"lastStopCode":"1113","passengers":0,"timestamp":1505094365000,"lastStopName":"Squires Wbnd"},{"latitude":37.23042,"pattern":"Toms Creek Progress","busId":"6015","route":"TOM","longitude":-80.42098,"isTripper":false,"direction":358,"lastStopCode":"1114","passengers":12,"timestamp":1505094374000,"lastStopName":"Torgersen Hall"},{"latitude":37.22685,"pattern":"University City Blvd via Alumni Mall","busId":"1912","route":"UCB","longitude":-80.4258,"isTripper":false,"direction":332,"lastStopCode":"1102","passengers":4,"timestamp":1505094366000,"lastStopName":"Davidson Hall"},{"latitude":37.2299,"pattern":"Harding Ave Night","busId":"6403","route":"HDG","longitude":-80.41853,"isTripper":false,"direction":50,"lastStopCode":"1110","passengers":6,"timestamp":1505094291000,"lastStopName":"Squires Ebnd"},{"latitude":37.22955,"pattern":"Hokie Express via Downtown","busId":"2701","route":"HXP","longitude":-80.4208,"isTripper":false,"direction":324,"lastStopCode":"1113","passengers":1,"timestamp":1505094361000,"lastStopName":"Squires Wbnd"},{"latitude":37.19702,"pattern":"Two Town Trolley No Hospital","busId":"6204","route":"TTT","longitude":-80.39662,"isTripper":false,"direction":188,"lastStopCode":"1110","passengers":40,"timestamp":1505082063000,"lastStopName":"Squires Ebnd"}]}][{"requestType":17,"buses":[{"latitude":37.22967,"pattern":"Main Street - North via Giles\/Patrick Henry","busId":"1916","route":"MSN","longitude":-80.41925,"isTripper":false,"direction":230,"lastStopCode":"1113","passengers":0,"timestamp":1505094365000,"lastStopName":"Squires Wbnd"},{"latitude":37.23042,"pattern":"Toms Creek Progress","busId":"6015","route":"TOM","longitude":-80.42098,"isTripper":false,"direction":358,"lastStopCode":"1114","passengers":12,"timestamp":1505094374000,"lastStopName":"Torgersen Hall"},{"latitude":37.22685,"pattern":"University City Blvd via Alumni Mall","busId":"1912","route":"UCB","longitude":-80.4258,"isTripper":false,"direction":332,"lastStopCode":"1102","passengers":4,"timestamp":1505094366000,"lastStopName":"Davidson Hall"},{"latitude":37.2299,"pattern":"Harding Ave Night","busId":"6403","route":"HDG","longitude":-80.41853,"isTripper":false,"direction":50,"lastStopCode":"1110","passengers":6,"timestamp":1505094291000,"lastStopName":"Squires Ebnd"},{"latitude":37.22955,"pattern":"Hokie Express via Downtown","busId":"2701","route":"HXP","longitude":-80.4208,"isTripper":false,"direction":324,"lastStopCode":"1113","passengers":1,"timestamp":1505094361000,"lastStopName":"Squires Wbnd"},{"latitude":37.19702,"pattern":"Two Town Trolley No Hospital","busId":"6204","route":"TTT","longitude":-80.39662,"isTripper":false,"direction":188,"lastStopCode":"1110","passengers":40,"timestamp":1505082063000,"lastStopName":"Squires Ebnd"}]}][{"requestType":17,"buses":[{"latitude":37.23112,"pattern":"Main Street - North via Giles\/Patrick Henry","busId":"1916","route":"MSN","longitude":-80.41657,"isTripper":false,"direction":52,"lastStopCode":"1111","passengers":0,"timestamp":1505094432000,"lastStopName":"Alumni Mall Ebnd"},{"latitude":37.23228,"pattern":"Toms Creek Progress","busId":"6015","route":"TOM","longitude":-80.42307,"isTripper":false,"direction":298,"lastStopCode":"1104","passengers":13,"timestamp":1505094429000,"lastStopName":"Old Security Bldg"},{"latitude":37.23057,"pattern":"University City Blvd via Alumni Mall","busId":"1912","route":"UCB","longitude":-80.42857,"isTripper":false,"direction":344,"lastStopCode":"1103","passengers":5,"timestamp":1505094430000,"lastStopName":"West Campus\/Perry Nbnd"},{"latitude":37.2299,"pattern":"Harding Ave Night","busId":"6403","route":"HDG","longitude":-80.41853,"isTripper":false,"direction":50,"lastStopCode":"1110","passengers":6,"timestamp":1505094291000,"lastStopName":"Squires Ebnd"},{"latitude":37.22797,"pattern":"Hokie Express via Downtown","busId":"2701","route":"HXP","longitude":-80.42365,"isTripper":false,"direction":230,"lastStopCode":"1101","passengers":1,"timestamp":1505094433000,"lastStopName":"Burruss Hall"},{"latitude":37.19702,"pattern":"Two Town Trolley No Hospital","busId":"6204","route":"TTT","longitude":-80.39662,"isTripper":false,"direction":188,"lastStopCode":"1110","passengers":40,"timestamp":1505082063000,"lastStopName":"Squires Ebnd"}]}][{"requestType":17,"buses":[{"latitude":37.2343,"pattern":"Main Street - North via Giles\/Patrick Henry","busId":"1916","route":"MSN","longitude":-80.41947,"isTripper":false,"direction":316,"lastStopCode":"1431","passengers":0,"timestamp":1505094489000,"lastStopName":"Main\/Turner Nbnd"},{"latitude":37.2372,"pattern":"Toms Creek Progress","busId":"6015","route":"TOM","longitude":-80.4268,"isTripper":false,"direction":10,"lastStopCode":"1301","passengers":13,"timestamp":1505094492000,"lastStopName":"Gilbert Linkous Nbnd"},{"latitude":37.2317,"pattern":"University City Blvd via Alumni Mall","busId":"1912","route":"UCB","longitude":-80.43232,"isTripper":false,"direction":278,"lastStopCode":"1103","passengers":5,"timestamp":1505094474000,"lastStopName":"West Campus\/Perry Nbnd"},{"latitude":37.22982,"pattern":"Harding Ave Night","busId":"6403","route":"HDG","longitude":-80.41447,"isTripper":false,"direction":140,"lastStopCode":"1600","passengers":12,"timestamp":1505094490000,"lastStopName":"Main\/Roanoke Sbnd"},{"latitude":37.22512,"pattern":"Hokie Express via Downtown","busId":"2701","route":"HXP","longitude":-80.42503,"isTripper":false,"direction":158,"lastStopCode":"1101","passengers":1,"timestamp":1505094492000,"lastStopName":"Burruss Hall"},{"latitude":37.19702,"pattern":"Two Town Trolley No Hospital","busId":"6204","route":"TTT","longitude":-80.39662,"isTripper":false,"direction":188,"lastStopCode":"1110","passengers":40,"timestamp":1505082063000,"lastStopName":"Squires Ebnd"}]}][{"requestType":17,"buses":[{"latitude":37.23952,"pattern":"Main Street - North via Giles\/Patrick Henry","busId":"1916","route":"MSN","longitude":-80.41965,"isTripper":false,"direction":26,"lastStopCode":"1401","passengers":0,"timestamp":1505094549000,"lastStopName":"Main\/Lucas Nbnd S"},{"latitude":37.24078,"pattern":"Toms Creek Progress","busId":"6015","route":"TOM","longitude":-80.42722,"isTripper":false,"direction":352,"lastStopCode":"1303","passengers":12,"timestamp":1505094549000,"lastStopName":"Toms Creek\/McBryde Nbnd"},{"latitude":37.23622,"pattern":"University City Blvd via Alumni Mall","busId":"1912","route":"UCB","longitude":-80.43427,"isTripper":false,"direction":338,"lastStopCode":"1317","passengers":5,"timestamp":1505094539000,"lastStopName":"University City\/Glade Nbnd"},{"latitude":37.23182,"pattern":"Harding Ave Night","busId":"6403","route":"HDG","longitude":-80.41027,"isTripper":false,"direction":48,"lastStopCode":"1502","passengers":12,"timestamp":1505094554000,"lastStopName":"Roanoke\/Rutledge Ebnd"},{"latitude":37.22113,"pattern":"Hokie Express via Downtown","busId":"2701","route":"HXP","longitude":-80.42238,"isTripper":false,"direction":54,"lastStopCode":"1123","passengers":1,"timestamp":1505094559000,"lastStopName":"McComas Hall"},{"latitude":37.19702,"pattern":"Two Town Trolley No Hospital","busId":"6204","route":"TTT","longitude":-80.39662,"isTripper":false,"direction":188,"lastStopCode":"1110","passengers":40,"timestamp":1505082063000,"lastStopName":"Squires Ebnd"}]}][{"requestType":17,"buses":[{"latitude":37.23952,"pattern":"Main Street - North via Giles\/Patrick Henry","busId":"1916","route":"MSN","longitude":-80.41965,"isTripper":false,"direction":26,"lastStopCode":"1401","passengers":0,"timestamp":1505094549000,"lastStopName":"Main\/Lucas Nbnd S"},{"latitude":37.24078,"pattern":"Toms Creek Progress","busId":"6015","route":"TOM","longitude":-80.42722,"isTripper":false,"direction":352,"lastStopCode":"1303","passengers":12,"timestamp":1505094549000,"lastStopName":"Toms Creek\/McBryde Nbnd"},{"latitude":37.23622,"pattern":"University City Blvd via Alumni Mall","busId":"1912","route":"UCB","longitude":-80.43427,"isTripper":false,"direction":338,"lastStopCode":"1317","passengers":5,"timestamp":1505094539000,"lastStopName":"University City\/Glade Nbnd"},{"latitude":37.23182,"pattern":"Harding Ave Night","busId":"6403","route":"HDG","longitude":-80.41027,"isTripper":false,"direction":48,"lastStopCode":"1502","passengers":12,"timestamp":1505094554000,"lastStopName":"Roanoke\/Rutledge Ebnd"},{"latitude":37.22113,"pattern":"Hokie Express via Downtown","busId":"2701","route":"HXP","longitude":-80.42238,"isTripper":false,"direction":54,"lastStopCode":"1123","passengers":1,"timestamp":1505094559000,"lastStopName":"McComas Hall"},{"latitude":37.19702,"pattern":"Two Town Trolley No Hospital","busId":"6204","route":"TTT","longitude":-80.39662,"isTripper":false,"direction":188,"lastStopCode":"1110","passengers":40,"timestamp":1505082063000,"lastStopName":"Squires Ebnd"}]}][{"requestType":17,"buses":[{"latitude":37.24072,"pattern":"Main Street - North via Giles\/Patrick Henry","busId":"1916","route":"MSN","longitude":-80.41635,"isTripper":false,"direction":22,"lastStopCode":"1403","passengers":0,"timestamp":1505094619000,"lastStopName":"Lucas\/Giles Ebnd"},{"latitude":37.24282,"pattern":"Toms Creek Progress","busId":"6015","route":"TOM","longitude":-80.42215,"isTripper":false,"direction":10,"lastStopCode":"1305","passengers":12,"timestamp":1505094624000,"lastStopName":"Progress\/Broce Nbnd"},{"latitude":37.24012,"pattern":"University City Blvd via Alumni Mall","busId":"1912","route":"UCB","longitude":-80.43562,"isTripper":false,"direction":340,"lastStopCode":"1318","passengers":5,"timestamp":1505094604000,"lastStopName":"University City\/Broce Nbnd"},{"latitude":37.2343,"pattern":"Harding Ave Night","busId":"6403","route":"HDG","longitude":-80.40897,"isTripper":false,"direction":320,"lastStopCode":"1503","passengers":11,"timestamp":1505094614000,"lastStopName":"Roanoke\/Woolwine Ebnd"},{"latitude":37.22248,"pattern":"Hokie Express via Downtown","busId":"2701","route":"HXP","longitude":-80.4204,"isTripper":false,"direction":48,"lastStopCode":"1123","passengers":1,"timestamp":1505094602000,"lastStopName":"McComas Hall"},{"latitude":37.19702,"pattern":"Two Town Trolley No Hospital","busId":"6204","route":"TTT","longitude":-80.39662,"isTripper":false,"direction":188,"lastStopCode":"1110","passengers":40,"timestamp":1505082063000,"lastStopName":"Squires Ebnd"}]}][{"requestType":17,"buses":[{"latitude":37.24347,"pattern":"Main Street - North via Giles\/Patrick Henry","busId":"1916","route":"MSN","longitude":-80.41362,"isTripper":false,"direction":48,"lastStopCode":"1405","passengers":0,"timestamp":1505094674000,"lastStopName":"Giles\/Heights Nbnd"},{"latitude":37.24515,"pattern":"Toms Creek Progress","busId":"6015","route":"TOM","longitude":-80.42142,"isTripper":false,"direction":348,"lastStopCode":"1307","passengers":9,"timestamp":1505094677000,"lastStopName":"Progress\/Patrick Henry Nbnd"},{"latitude":37.24262,"pattern":"University City Blvd via Alumni Mall","busId":"1912","route":"UCB","longitude":-80.43117,"isTripper":false,"direction":78,"lastStopCode":"1320","passengers":4,"timestamp":1505094675000,"lastStopName":"Shawnee on University City Ebnd"},{"latitude":37.23947,"pattern":"Harding Ave Night","busId":"6403","route":"HDG","longitude":-80.40238,"isTripper":false,"direction":56,"lastStopCode":"1508","passengers":11,"timestamp":1505094684000,"lastStopName":"Harding\/Vista Ebnd"},{"latitude":37.21807,"pattern":"Hokie Express via Downtown","busId":"2701","route":"HXP","longitude":-80.41938,"isTripper":false,"direction":188,"lastStopCode":"1127","passengers":1,"timestamp":1505094674000,"lastStopName":"Lane Stadium S Endzone Sbnd"},{"latitude":37.19702,"pattern":"Two Town Trolley No Hospital","busId":"6204","route":"TTT","longitude":-80.39662,"isTripper":false,"direction":188,"lastStopCode":"1110","passengers":40,"timestamp":1505082063000,"lastStopName":"Squires Ebnd"}]}][{"requestType":17,"buses":[{"latitude":37.24347,"pattern":"Main Street - North via Giles\/Patrick Henry","busId":"1916","route":"MSN","longitude":-80.41362,"isTripper":false,"direction":48,"lastStopCode":"1405","passengers":0,"timestamp":1505094674000,"lastStopName":"Giles\/Heights Nbnd"},{"latitude":37.24515,"pattern":"Toms Creek Progress","busId":"6015","route":"TOM","longitude":-80.42142,"isTripper":false,"direction":348,"lastStopCode":"1307","passengers":9,"timestamp":1505094677000,"lastStopName":"Progress\/Patrick Henry Nbnd"},{"latitude":37.24262,"pattern":"University City Blvd via Alumni Mall","busId":"1912","route":"UCB","longitude":-80.43117,"isTripper":false,"direction":78,"lastStopCode":"1320","passengers":4,"timestamp":1505094675000,"lastStopName":"Shawnee on University City Ebnd"},{"latitude":37.23947,"pattern":"Harding Ave Night","busId":"6403","route":"HDG","longitude":-80.40238,"isTripper":false,"direction":56,"lastStopCode":"1508","passengers":11,"timestamp":1505094684000,"lastStopName":"Harding\/Vista Ebnd"},{"latitude":37.21807,"pattern":"Hokie Express via Downtown","busId":"2701","route":"HXP","longitude":-80.41938,"isTripper":false,"direction":188,"lastStopCode":"1127","passengers":1,"timestamp":1505094674000,"lastStopName":"Lane Stadium S Endzone Sbnd"},{"latitude":37.19702,"pattern":"Two Town Trolley No Hospital","busId":"6204","route":"TTT","longitude":-80.39662,"isTripper":false,"direction":188,"lastStopCode":"1110","passengers":40,"timestamp":1505082063000,"lastStopName":"Squires Ebnd"}]}][{"requestType":17,"buses":[{"latitude":37.24605,"pattern":"Main Street - North via Giles\/Patrick Henry","busId":"1916","route":"MSN","longitude":-80.4142,"isTripper":false,"direction":300,"lastStopCode":"1408","passengers":0,"timestamp":1505094733000,"lastStopName":"Patrick Henry\/Main Wbnd"},{"latitude":37.24608,"pattern":"Toms Creek Progress","busId":"6015","route":"TOM","longitude":-80.42202,"isTripper":false,"direction":306,"lastStopCode":"1307","passengers":10,"timestamp":1505094738000,"lastStopName":"Progress\/Patrick Henry Nbnd"},{"latitude":37.24397,"pattern":"University City Blvd via Alumni Mall","busId":"1912","route":"UCB","longitude":-80.42755,"isTripper":false,"direction":52,"lastStopCode":"1323","passengers":4,"timestamp":1505094745000,"lastStopName":"Patrick Henry\/Toms Creek Ebnd"},{"latitude":37.24142,"pattern":"Harding Ave Night","busId":"6403","route":"HDG","longitude":-80.39895,"isTripper":false,"direction":110,"lastStopCode":"1510","passengers":11,"timestamp":1505094740000,"lastStopName":"Ascot\/Harding Ebnd"},{"latitude":37.21765,"pattern":"Hokie Express via Downtown","busId":"2701","route":"HXP","longitude":-80.42455,"isTripper":false,"direction":326,"lastStopCode":"1127","passengers":1,"timestamp":1505094745000,"lastStopName":"Lane Stadium S Endzone Sbnd"},{"latitude":37.19702,"pattern":"Two Town Trolley No Hospital","busId":"6204","route":"TTT","longitude":-80.39662,"isTripper":false,"direction":188,"lastStopCode":"1110","passengers":40,"timestamp":1505082063000,"lastStopName":"Squires Ebnd"}]}][{"requestType":17,"buses":[{"latitude":37.25042,"pattern":"Main Street - North via Giles\/Patrick Henry","busId":"1916","route":"MSN","longitude":-80.41187,"isTripper":false,"direction":28,"lastStopCode":"1409","passengers":0,"timestamp":1505094805000,"lastStopName":"1500 North Main Nbnd"},{"latitude":37.24482,"pattern":"Toms Creek Progress","busId":"6015","route":"TOM","longitude":-80.42585,"isTripper":false,"direction":244,"lastStopCode":"1308","passengers":7,"timestamp":1505094811000,"lastStopName":"The Village on Patrick Henry Wbnd"},{"latitude":37.24397,"pattern":"University City Blvd via Alumni Mall","busId":"1912","route":"UCB","longitude":-80.42755,"isTripper":false,"direction":52,"lastStopCode":"1323","passengers":4,"timestamp":1505094805000,"lastStopName":"Patrick Henry\/Toms Creek Ebnd"},{"latitude":37.23963,"pattern":"Harding Ave Night","busId":"6403","route":"HDG","longitude":-80.39855,"isTripper":false,"direction":166,"lastStopCode":"1510","passengers":8,"timestamp":1505094810000,"lastStopName":"Ascot\/Harding Ebnd"},{"latitude":37.22108,"pattern":"Hokie Express via Downtown","busId":"2701","route":"HXP","longitude":-80.42702,"isTripper":false,"direction":328,"lastStopCode":"1131","passengers":1,"timestamp":1505094815000,"lastStopName":"Bioinfomatics Bldg"},{"latitude":37.19702,"pattern":"Two Town Trolley No Hospital","busId":"6204","route":"TTT","longitude":-80.39662,"isTripper":false,"direction":188,"lastStopCode":"1110","passengers":40,"timestamp":1505082063000,"lastStopName":"Squires Ebnd"}]}][{"requestType":17,"buses":[{"latitude":37.25307,"pattern":"Main Street - North via Giles\/Patrick Henry","busId":"1916","route":"MSN","longitude":-80.41087,"isTripper":false,"direction":2,"lastStopCode":"1411","passengers":0,"timestamp":1505094858000,"lastStopName":"Main\/Red Maple Nbnd"},{"latitude":37.2435,"pattern":"Toms Creek Progress","busId":"6015","route":"TOM","longitude":-80.42853,"isTripper":false,"direction":224,"lastStopCode":"1309","passengers":8,"timestamp":1505094861000,"lastStopName":"Patrick Henry\/Toms Creek Wbnd"},{"latitude":37.24397,"pattern":"University City Blvd via Alumni Mall","busId":"1912","route":"UCB","longitude":-80.42755,"isTripper":false,"direction":52,"lastStopCode":"1323","passengers":4,"timestamp":1505094865000,"lastStopName":"Patrick Henry\/Toms Creek Ebnd"},{"latitude":37.23932,"pattern":"Harding Ave Night","busId":"6403","route":"HDG","longitude":-80.39812,"isTripper":false,"direction":38,"lastStopCode":"1511","passengers":8,"timestamp":1505094871000,"lastStopName":"Ascot\/Hampton"},{"latitude":37.2244,"pattern":"Hokie Express via Downtown","busId":"2701","route":"HXP","longitude":-80.42982,"isTripper":false,"direction":296,"lastStopCode":"1131","passengers":4,"timestamp":1505094859000,"lastStopName":"Bioinfomatics Bldg"},{"latitude":37.19702,"pattern":"Two Town Trolley No Hospital","busId":"6204","route":"TTT","longitude":-80.39662,"isTripper":false,"direction":188,"lastStopCode":"1110","passengers":40,"timestamp":1505082063000,"lastStopName":"Squires Ebnd"}]}][{"requestType":17,"buses":[{"latitude":37.25307,"pattern":"Main Street - North via Giles\/Patrick Henry","busId":"1916","route":"MSN","longitude":-80.41087,"isTripper":false,"direction":2,"lastStopCode":"1411","passengers":0,"timestamp":1505094858000,"lastStopName":"Main\/Red Maple Nbnd"},{"latitude":37.2435,"pattern":"Toms Creek Progress","busId":"6015","route":"TOM","longitude":-80.42853,"isTripper":false,"direction":224,"lastStopCode":"1309","passengers":8,"timestamp":1505094861000,"lastStopName":"Patrick Henry\/Toms Creek Wbnd"},{"latitude":37.24397,"pattern":"University City Blvd via Alumni Mall","busId":"1912","route":"UCB","longitude":-80.42755,"isTripper":false,"direction":52,"lastStopCode":"1323","passengers":4,"timestamp":1505094865000,"lastStopName":"Patrick Henry\/Toms Creek Ebnd"},{"latitude":37.23932,"pattern":"Harding Ave Night","busId":"6403","route":"HDG","longitude":-80.39812,"isTripper":false,"direction":38,"lastStopCode":"1511","passengers":8,"timestamp":1505094871000,"lastStopName":"Ascot\/Hampton"},{"latitude":37.2244,"pattern":"Hokie Express via Downtown","busId":"2701","route":"HXP","longitude":-80.42982,"isTripper":false,"direction":296,"lastStopCode":"1131","passengers":4,"timestamp":1505094859000,"lastStopName":"Bioinfomatics Bldg"},{"latitude":37.19702,"pattern":"Two Town Trolley No Hospital","busId":"6204","route":"TTT","longitude":-80.39662,"isTripper":false,"direction":188,"lastStopCode":"1110","passengers":40,"timestamp":1505082063000,"lastStopName":"Squires Ebnd"}]}][{"requestType":17,"buses":[{"latitude":37.25307,"pattern":"Main Street - North via Giles\/Patrick Henry","busId":"1916","route":"MSN","longitude":-80.41087,"isTripper":false,"direction":2,"lastStopCode":"1411","passengers":0,"timestamp":1505094918000,"lastStopName":"Main\/Red Maple Nbnd"},{"latitude":37.24303,"pattern":"Toms Creek Progress","busId":"6015","route":"TOM","longitude":-80.42978,"isTripper":false,"direction":250,"lastStopCode":"1310","passengers":8,"timestamp":1505094921000,"lastStopName":"University City\/Toms Creek Wbnd"},{"latitude":37.24397,"pattern":"University City Blvd via Alumni Mall","busId":"1912","route":"UCB","longitude":-80.42755,"isTripper":false,"direction":52,"lastStopCode":"1323","passengers":4,"timestamp":1505094924000,"lastStopName":"Patrick Henry\/Toms Creek Ebnd"},{"latitude":37.23932,"pattern":"Harding Ave Night","busId":"6403","route":"HDG","longitude":-80.39812,"isTripper":false,"direction":38,"lastStopCode":"1511","passengers":8,"timestamp":1505094931000,"lastStopName":"Ascot\/Hampton"},{"latitude":37.22482,"pattern":"Hokie Express via Downtown","busId":"2701","route":"HXP","longitude":-80.43488,"isTripper":false,"direction":278,"lastStopCode":"1117","passengers":4,"timestamp":1505094922000,"lastStopName":"Overflow Lot Wbnd"},{"latitude":37.19702,"pattern":"Two Town Trolley No Hospital","busId":"6204","route":"TTT","longitude":-80.39662,"isTripper":false,"direction":188,"lastStopCode":"1110","passengers":40,"timestamp":1505082063000,"lastStopName":"Squires Ebnd"}]}][{"requestType":17,"buses":[{"latitude":37.25307,"pattern":"Main Street - North via Giles\/Patrick Henry","busId":"1916","route":"MSN","longitude":-80.41087,"isTripper":false,"direction":2,"lastStopCode":"1411","passengers":0,"timestamp":1505094978000,"lastStopName":"Main\/Red Maple Nbnd"},{"latitude":37.24303,"pattern":"Toms Creek Progress","busId":"6015","route":"TOM","longitude":-80.42978,"isTripper":false,"direction":250,"lastStopCode":"1310","passengers":8,"timestamp":1505094981000,"lastStopName":"University City\/Toms Creek Wbnd"},{"latitude":37.24397,"pattern":"University City Blvd via Alumni Mall","busId":"1912","route":"UCB","longitude":-80.42755,"isTripper":false,"direction":52,"lastStopCode":"1323","passengers":4,"timestamp":1505094984000,"lastStopName":"Patrick Henry\/Toms Creek Ebnd"},{"latitude":37.23932,"pattern":"Harding Ave Night","busId":"6403","route":"HDG","longitude":-80.39812,"isTripper":false,"direction":38,"lastStopCode":"1511","passengers":8,"timestamp":1505094991000,"lastStopName":"Ascot\/Hampton"},{"latitude":37.2264,"pattern":"Hokie Express via Downtown","busId":"2701","route":"HXP","longitude":-80.43742,"isTripper":false,"direction":246,"lastStopCode":"1118","passengers":3,"timestamp":1505094997000,"lastStopName":"Oak Lane North"},{"latitude":37.19702,"pattern":"Two Town Trolley No Hospital","busId":"6204","route":"TTT","longitude":-80.39662,"isTripper":false,"direction":188,"lastStopCode":"1110","passengers":40,"timestamp":1505082063000,"lastStopName":"Squires Ebnd"}]}][{"requestType":17,"buses":[{"latitude":37.25307,"pattern":"Main Street - North via Giles\/Patrick Henry","busId":"1916","route":"MSN","longitude":-80.41087,"isTripper":false,"direction":2,"lastStopCode":"1411","passengers":0,"timestamp":1505095038000,"lastStopName":"Main\/Red Maple Nbnd"},{"latitude":37.24303,"pattern":"Toms Creek Progress","busId":"6015","route":"TOM","longitude":-80.42978,"isTripper":false,"direction":250,"lastStopCode":"1310","passengers":8,"timestamp":1505095041000,"lastStopName":"University City\/Toms Creek Wbnd"},{"latitude":37.24397,"pattern":"University City Blvd via Alumni Mall","busId":"1912","route":"UCB","longitude":-80.42755,"isTripper":false,"direction":52,"lastStopCode":"1323","passengers":4,"timestamp":1505095044000,"lastStopName":"Patrick Henry\/Toms Creek Ebnd"},{"latitude":37.23982,"pattern":"Harding Ave Night","busId":"6403","route":"HDG","longitude":-80.39853,"isTripper":false,"direction":344,"lastStopCode":"1511","passengers":6,"timestamp":1505095051000,"lastStopName":"Ascot\/Hampton"},{"latitude":37.2264,"pattern":"Hokie Express via Downtown","busId":"2701","route":"HXP","longitude":-80.43742,"isTripper":false,"direction":246,"lastStopCode":"1118","passengers":3,"timestamp":1505095057000,"lastStopName":"Oak Lane North"},{"latitude":37.19702,"pattern":"Two Town Trolley No Hospital","busId":"6204","route":"TTT","longitude":-80.39662,"isTripper":false,"direction":188,"lastStopCode":"1110","passengers":40,"timestamp":1505082063000,"lastStopName":"Squires Ebnd"}]}][{"requestType":17,"buses":[{"latitude":37.25307,"pattern":"Main Street - North via Giles\/Patrick Henry","busId":"1916","route":"MSN","longitude":-80.41087,"isTripper":false,"direction":2,"lastStopCode":"1411","passengers":0,"timestamp":1505095038000,"lastStopName":"Main\/Red Maple Nbnd"},{"latitude":37.24303,"pattern":"Toms Creek Progress","busId":"6015","route":"TOM","longitude":-80.42978,"isTripper":false,"direction":250,"lastStopCode":"1310","passengers":8,"timestamp":1505095041000,"lastStopName":"University City\/Toms Creek Wbnd"},{"latitude":37.24397,"pattern":"University City Blvd via Alumni Mall","busId":"1912","route":"UCB","longitude":-80.42755,"isTripper":false,"direction":52,"lastStopCode":"1323","passengers":4,"timestamp":1505095044000,"lastStopName":"Patrick Henry\/Toms Creek Ebnd"},{"latitude":37.23982,"pattern":"Harding Ave Night","busId":"6403","route":"HDG","longitude":-80.39853,"isTripper":false,"direction":344,"lastStopCode":"1511","passengers":6,"timestamp":1505095051000,"lastStopName":"Ascot\/Hampton"},{"latitude":37.2264,"pattern":"Hokie Express via Downtown","busId":"2701","route":"HXP","longitude":-80.43742,"isTripper":false,"direction":246,"lastStopCode":"1118","passengers":3,"timestamp":1505095057000,"lastStopName":"Oak Lane North"},{"latitude":37.19702,"pattern":"Two Town Trolley No Hospital","busId":"6204","route":"TTT","longitude":-80.39662,"isTripper":false,"direction":188,"lastStopCode":"1110","passengers":40,"timestamp":1505082063000,"lastStopName":"Squires Ebnd"}]}][{"requestType":17,"buses":[{"latitude":37.25307,"pattern":"Main Street - North via Giles\/Patrick Henry","busId":"1916","route":"MSN","longitude":-80.41087,"isTripper":false,"direction":2,"lastStopCode":"1411","passengers":0,"timestamp":1505095097000,"lastStopName":"Main\/Red Maple Nbnd"},{"latitude":37.24303,"pattern":"Toms Creek Progress","busId":"6015","route":"TOM","longitude":-80.42978,"isTripper":false,"direction":250,"lastStopCode":"1310","passengers":8,"timestamp":1505095101000,"lastStopName":"University City\/Toms Creek Wbnd"},{"latitude":37.24397,"pattern":"University City Blvd via Alumni Mall","busId":"1912","route":"UCB","longitude":-80.42755,"isTripper":false,"direction":52,"lastStopCode":"1323","passengers":4,"timestamp":1505095106000,"lastStopName":"Patrick Henry\/Toms Creek Ebnd"},{"latitude":37.24018,"pattern":"Harding Ave Night","busId":"6403","route":"HDG","longitude":-80.40112,"isTripper":false,"direction":236,"lastStopCode":"1513","passengers":6,"timestamp":1505095121000,"lastStopName":"Harding\/Rucker Wbnd"},{"latitude":37.2264,"pattern":"Hokie Express via Downtown","busId":"2701","route":"HXP","longitude":-80.43742,"isTripper":false,"direction":246,"lastStopCode":"1118","passengers":3,"timestamp":1505095117000,"lastStopName":"Oak Lane North"},{"latitude":37.19702,"pattern":"Two Town Trolley No Hospital","busId":"6204","route":"TTT","longitude":-80.39662,"isTripper":false,"direction":188,"lastStopCode":"1110","passengers":40,"timestamp":1505082063000,"lastStopName":"Squires Ebnd"}]}][{"requestType":17,"buses":[{"latitude":37.25307,"pattern":"Main Street - North via Giles\/Patrick Henry","busId":"1916","route":"MSN","longitude":-80.41087,"isTripper":false,"direction":2,"lastStopCode":"1411","passengers":0,"timestamp":1505095157000,"lastStopName":"Main\/Red Maple Nbnd"},{"latitude":37.24303,"pattern":"Toms Creek Progress","busId":"6015","route":"TOM","longitude":-80.42978,"isTripper":false,"direction":250,"lastStopCode":"1310","passengers":8,"timestamp":1505095161000,"lastStopName":"University City\/Toms Creek Wbnd"},{"latitude":37.24397,"pattern":"University City Blvd via Alumni Mall","busId":"1912","route":"UCB","longitude":-80.42755,"isTripper":false,"direction":52,"lastStopCode":"1323","passengers":4,"timestamp":1505095166000,"lastStopName":"Patrick Henry\/Toms Creek Ebnd"},{"latitude":37.23652,"pattern":"Harding Ave Night","busId":"6403","route":"HDG","longitude":-80.40768,"isTripper":false,"direction":214,"lastStopCode":"1516","passengers":6,"timestamp":1505095182000,"lastStopName":"Harding\/Patrick Henry Wbnd"},{"latitude":37.2264,"pattern":"Hokie Express via Downtown","busId":"2701","route":"HXP","longitude":-80.43742,"isTripper":false,"direction":246,"lastStopCode":"1118","passengers":3,"timestamp":1505095177000,"lastStopName":"Oak Lane North"},{"latitude":37.19702,"pattern":"Two Town Trolley No Hospital","busId":"6204","route":"TTT","longitude":-80.39662,"isTripper":false,"direction":188,"lastStopCode":"1110","passengers":40,"timestamp":1505082063000,"lastStopName":"Squires Ebnd"}]}][{"requestType":17,"buses":[{"latitude":37.25307,"pattern":"Main Street - North via Giles\/Patrick Henry","busId":"1916","route":"MSN","longitude":-80.41087,"isTripper":false,"direction":2,"lastStopCode":"1411","passengers":0,"timestamp":1505095157000,"lastStopName":"Main\/Red Maple Nbnd"},{"latitude":37.24303,"pattern":"Toms Creek Progress","busId":"6015","route":"TOM","longitude":-80.42978,"isTripper":false,"direction":250,"lastStopCode":"1310","passengers":8,"timestamp":1505095161000,"lastStopName":"University City\/Toms Creek Wbnd"},{"latitude":37.24397,"pattern":"University City Blvd via Alumni Mall","busId":"1912","route":"UCB","longitude":-80.42755,"isTripper":false,"direction":52,"lastStopCode":"1323","passengers":4,"timestamp":1505095166000,"lastStopName":"Patrick Henry\/Toms Creek Ebnd"},{"latitude":37.23652,"pattern":"Harding Ave Night","busId":"6403","route":"HDG","longitude":-80.40768,"isTripper":false,"direction":214,"lastStopCode":"1516","passengers":6,"timestamp":1505095182000,"lastStopName":"Harding\/Patrick Henry Wbnd"},{"latitude":37.2264,"pattern":"Hokie Express via Downtown","busId":"2701","route":"HXP","longitude":-80.43742,"isTripper":false,"direction":246,"lastStopCode":"1118","passengers":3,"timestamp":1505095177000,"lastStopName":"Oak Lane North"},{"latitude":37.19702,"pattern":"Two Town Trolley No Hospital","busId":"6204","route":"TTT","longitude":-80.39662,"isTripper":false,"direction":188,"lastStopCode":"1110","passengers":40,"timestamp":1505082063000,"lastStopName":"Squires Ebnd"}]}][{"requestType":17,"buses":[{"latitude":37.25582,"pattern":"Main Street - North via Giles\/Patrick Henry","busId":"1916","route":"MSN","longitude":-80.41067,"isTripper":false,"direction":4,"lastStopCode":"1411","passengers":0,"timestamp":1505095244000,"lastStopName":"Main\/Red Maple Nbnd"},{"latitude":37.2422,"pattern":"Toms Creek Progress","busId":"6015","route":"TOM","longitude":-80.4338,"isTripper":false,"direction":254,"lastStopCode":"1311","passengers":8,"timestamp":1505095251000,"lastStopName":"Shawnee on University City Wbnd"},{"latitude":37.24502,"pattern":"University City Blvd via Alumni Mall","busId":"1912","route":"UCB","longitude":-80.42485,"isTripper":false,"direction":78,"lastStopCode":"1324","passengers":1,"timestamp":1505095235000,"lastStopName":"The Village on Patrick Henry Ebnd"},{"latitude":37.23223,"pattern":"Harding Ave Night","busId":"6403","route":"HDG","longitude":-80.40962,"isTripper":false,"direction":228,"lastStopCode":"1518","passengers":6,"timestamp":1505095247000,"lastStopName":"Roanoke\/Woolwine Wbnd"},{"latitude":37.22528,"pattern":"Hokie Express via Downtown","busId":"2701","route":"HXP","longitude":-80.43703,"isTripper":false,"direction":154,"lastStopCode":"1118","passengers":3,"timestamp":1505095237000,"lastStopName":"Oak Lane North"},{"latitude":37.19702,"pattern":"Two Town Trolley No Hospital","busId":"6204","route":"TTT","longitude":-80.39662,"isTripper":false,"direction":188,"lastStopCode":"1110","passengers":40,"timestamp":1505082063000,"lastStopName":"Squires Ebnd"}]}][{"requestType":17,"buses":[{"latitude":37.25482,"pattern":"Main Street - North via Giles\/Patrick Henry","busId":"1916","route":"MSN","longitude":-80.41347,"isTripper":false,"direction":178,"lastStopCode":"1413","passengers":0,"timestamp":1505095307000,"lastStopName":"Whipple\/Givens Wbnd"},{"latitude":37.23787,"pattern":"Toms Creek Progress","busId":"6015","route":"TOM","longitude":-80.43518,"isTripper":false,"direction":156,"lastStopCode":"1312","passengers":8,"timestamp":1505095308000,"lastStopName":"Shawnee on University City Sbnd"},{"latitude":37.24512,"pattern":"University City Blvd via Alumni Mall","busId":"1912","route":"UCB","longitude":-80.4215,"isTripper":false,"direction":164,"lastStopCode":"1325","passengers":2,"timestamp":1505095306000,"lastStopName":"Patrick Henry\/Progress Ebnd"},{"latitude":37.22957,"pattern":"Harding Ave Night","busId":"6403","route":"HDG","longitude":-80.41365,"isTripper":false,"direction":234,"lastStopCode":"1521","passengers":6,"timestamp":1505095298000,"lastStopName":"Roanoke\/Penn Wbnd"},{"latitude":37.22367,"pattern":"Hokie Express via Downtown","busId":"2701","route":"HXP","longitude":-80.43257,"isTripper":false,"direction":132,"lastStopCode":"1119","passengers":3,"timestamp":1505095293000,"lastStopName":"Oak Lane South"},{"latitude":37.19702,"pattern":"Two Town Trolley No Hospital","busId":"6204","route":"TTT","longitude":-80.39662,"isTripper":false,"direction":188,"lastStopCode":"1110","passengers":40,"timestamp":1505082063000,"lastStopName":"Squires Ebnd"}]}][{"requestType":17,"buses":[{"latitude":37.2515,"pattern":"Main Street - North via Giles\/Patrick Henry","busId":"1916","route":"MSN","longitude":-80.41252,"isTripper":false,"direction":168,"lastStopCode":"1428","passengers":0,"timestamp":1505095364000,"lastStopName":"Whipple\/Courtney Sbnd"},{"latitude":37.23577,"pattern":"Toms Creek Progress","busId":"6015","route":"TOM","longitude":-80.43413,"isTripper":false,"direction":158,"lastStopCode":"1314","passengers":6,"timestamp":1505095374000,"lastStopName":"University City\/Glade Sbnd"},{"latitude":37.24187,"pattern":"University City Blvd via Alumni Mall","busId":"1912","route":"UCB","longitude":-80.42232,"isTripper":false,"direction":180,"lastStopCode":"1328","passengers":1,"timestamp":1505095367000,"lastStopName":"Progress\/Broce Sbnd"},{"latitude":37.23098,"pattern":"Harding Ave Night","busId":"6403","route":"HDG","longitude":-80.41573,"isTripper":false,"direction":322,"lastStopCode":"1628","passengers":6,"timestamp":1505095368000,"lastStopName":"Main St Post Office"},{"latitude":37.22162,"pattern":"Hokie Express via Downtown","busId":"2701","route":"HXP","longitude":-80.42752,"isTripper":false,"direction":140,"lastStopCode":"1120","passengers":3,"timestamp":1505095373000,"lastStopName":"Overflow Lot Ebnd"},{"latitude":37.19702,"pattern":"Two Town Trolley No Hospital","busId":"6204","route":"TTT","longitude":-80.39662,"isTripper":false,"direction":188,"lastStopCode":"1110","passengers":40,"timestamp":1505082063000,"lastStopName":"Squires Ebnd"}]}][{"requestType":17,"buses":[{"latitude":37.2515,"pattern":"Main Street - North via Giles\/Patrick Henry","busId":"1916","route":"MSN","longitude":-80.41252,"isTripper":false,"direction":168,"lastStopCode":"1428","passengers":0,"timestamp":1505095364000,"lastStopName":"Whipple\/Courtney Sbnd"},{"latitude":37.23577,"pattern":"Toms Creek Progress","busId":"6015","route":"TOM","longitude":-80.43413,"isTripper":false,"direction":158,"lastStopCode":"1314","passengers":6,"timestamp":1505095374000,"lastStopName":"University City\/Glade Sbnd"},{"latitude":37.24187,"pattern":"University City Blvd via Alumni Mall","busId":"1912","route":"UCB","longitude":-80.42232,"isTripper":false,"direction":180,"lastStopCode":"1328","passengers":1,"timestamp":1505095367000,"lastStopName":"Progress\/Broce Sbnd"},{"latitude":37.23098,"pattern":"Harding Ave Night","busId":"6403","route":"HDG","longitude":-80.41573,"isTripper":false,"direction":322,"lastStopCode":"1628","passengers":6,"timestamp":1505095368000,"lastStopName":"Main St Post Office"},{"latitude":37.22162,"pattern":"Hokie Express via Downtown","busId":"2701","route":"HXP","longitude":-80.42752,"isTripper":false,"direction":140,"lastStopCode":"1120","passengers":3,"timestamp":1505095373000,"lastStopName":"Overflow Lot Ebnd"},{"latitude":37.19702,"pattern":"Two Town Trolley No Hospital","busId":"6204","route":"TTT","longitude":-80.39662,"isTripper":false,"direction":188,"lastStopCode":"1110","passengers":40,"timestamp":1505082063000,"lastStopName":"Squires Ebnd"}]}][{"requestType":17,"buses":[{"latitude":37.24742,"pattern":"Main Street - North via Giles\/Patrick Henry","busId":"1916","route":"MSN","longitude":-80.41417,"isTripper":false,"direction":210,"lastStopCode":"1429","passengers":0,"timestamp":1505095414000,"lastStopName":"1500 North Main Sbnd"},